航空公司ID,出发地ID,目的地ID,航线ID,日期,出发地机场名称,出发地城市,出发地国家,src_lng,src_lat,出发地机场ID,出发地新冠确诊病例,出发地猴痘确诊病例,目的地机场名称,目的地城市,目的地国家,dst_lng,dst_lat,目的地机场ID,目的地新冠确诊病例,目的地猴痘确诊病例,航空公司名称,航空公司国家,航空公司ID,航线流量,病例
4,1965,3307,2357,2030-01-20 00:00:00,La Tontouta,Noumea,New Caledonia,166.212972,-22.014553,1965,0.0,0.0,Zhoushuizi,Dalian,China,121.5386,38.965667,3307,114489.0,0.0,China Eastern Airlines,China,4,2,0.0
5,575,3307,3620,2030-01-20 00:00:00,Mount Pleasant,Mount Pleasant,Falkland Islands,-58.447222,-51.822777,575,0.0,0.0,Zhoushuizi,Dalian,China,121.5386,38.965667,3307,114489.0,0.0,Air China,China,5,3,0.0
3,575,3307,9518,2030-01-20 00:00:00,Mount Pleasant,Mount Pleasant,Falkland Islands,-58.447222,-51.822777,575,0.0,0.0,Zhoushuizi,Dalian,China,121.5386,38.965667,3307,114489.0,0.0,Southwest Airlines,United States,3,2,0.0
3,3786,3307,9532,2030-01-20 00:00:00,Robins Afb,Macon,United States,-83.59185,32.640144,3786,0.0,0.0,Zhoushuizi,Dalian,China,121.5386,38.965667,3307,114489.0,0.0,Southwest Airlines,United States,3,2,0.0
4,1358,3307,2427,2030-01-20 00:00:00,Creil,Creil,France,2.519139,49.253547,1358,6213201.0,1.0,Zhoushuizi,Dalian,China,121.5386,38.965667,3307,114489.0,0.0,China Eastern Airlines,China,4,2,6213201.0
3,1358,3307,9562,2030-01-20 00:00:00,Creil,Creil,France,2.519139,49.253547,1358,8071763.0,1.0,Zhoushuizi,Dalian,China,121.5386,38.965667,3307,114489.0,0.0,Southwest Airlines,United States,3,1,8071763.0
3,2231,3307,9626,2030-01-20 00:00:00,Obihiro,Obihiro,Japan,143.217222,42.733333,2231,2436253.0,0.0,Zhoushuizi,Dalian,China,121.5386,38.965667,3307,114489.0,0.0,Southwest Airlines,United States,3,2,2436253.0
3,3012,3307,9670,2030-01-20 00:00:00,Dehradun,Dehra Dun,India,78.180256,30.189689,3012,33543909.0,0.0,Zhoushuizi,Dalian,China,121.5386,38.965667,3307,114489.0,0.0,Southwest Airlines,United States,3,3,33543909.0
5,3546,3307,3993,2030-01-20 00:00:00,Bob Hope,Burbank,United States,-118.358667,34.200667,3546,0.0,0.0,Zhoushuizi,Dalian,China,121.5386,38.965667,3307,114489.0,0.0,Air China,China,5,2,0.0
7,3546,3307,5709,2030-01-20 00:00:00,Bob Hope,Burbank,United States,-118.358667,34.200667,3546,0.0,0.0,Zhoushuizi,Dalian,China,121.5386,38.965667,3307,114489.0,0.0,US Airways,United States,7,2,0.0
3,3546,3307,9697,2030-01-20 00:00:00,Bob Hope,Burbank,United States,-118.358667,34.200667,3546,0.0,0.0,Zhoushuizi,Dalian,China,121.5386,38.965667,3307,114489.0,0.0,Southwest Airlines,United States,3,2,0.0
4,3395,3307,2621,2030-01-20 00:00:00,Lafayette Rgnl,Lafayette,United States,-91.987611,30.205278,3395,0.0,0.0,Zhoushuizi,Dalian,China,121.5386,38.965667,3307,114489.0,0.0,China Eastern Airlines,China,4,1,0.0
8,3395,3307,12501,2030-01-20 00:00:00,Lafayette Rgnl,Lafayette,United States,-91.987611,30.205278,3395,0.0,0.0,Zhoushuizi,Dalian,China,121.5386,38.965667,3307,114489.0,0.0,Delta Air Lines,United States,8,3,0.0
3,1529,3307,9707,2030-01-20 00:00:00,Pratica Di Mare,Pratica Di Mare,Italy,12.445183,41.654522,1529,6745670.0,0.0,Zhoushuizi,Dalian,China,121.5386,38.965667,3307,114489.0,0.0,Southwest Airlines,United States,3,3,6745670.0
4,337,3307,2637,2030-01-20 00:00:00,Erfurt,Erfurt,Germany,10.958106,50.979811,337,4754491.0,1.0,Zhoushuizi,Dalian,China,121.5386,38.965667,3307,114489.0,0.0,China Eastern Airlines,China,4,3,4754491.0
3,337,3307,9714,2030-01-20 00:00:00,Erfurt,Erfurt,Germany,10.958106,50.979811,337,6670193.0,1.0,Zhoushuizi,Dalian,China,121.5386,38.965667,3307,114489.0,0.0,Southwest Airlines,United States,3,3,6670193.0
4,2248,3307,2641,2030-01-20 00:00:00,Fukue,Fukue,Japan,128.832808,32.666269,2248,906391.0,0.0,Zhoushuizi,Dalian,China,121.5386,38.965667,3307,114489.0,0.0,China Eastern Airlines,China,4,1,906391.0
3,2248,3307,9717,2030-01-20 00:00:00,Fukue,Fukue,Japan,128.832808,32.666269,2248,3817135.0,0.0,Zhoushuizi,Dalian,China,121.5386,38.965667,3307,114489.0,0.0,Southwest Airlines,United States,3,2,3817135.0
3,3111,3307,9727,2030-01-20 00:00:00,Kep,Kep,Vietnam,106.261083,21.394639,3111,2457876.0,0.0,Zhoushuizi,Dalian,China,121.5386,38.965667,3307,114489.0,0.0,Southwest Airlines,United States,3,2,2457876.0
4,418,3307,2663,2030-01-20 00:00:00,Helsinki Malmi,Helsinki,Finland,25.042828,60.254558,418,2312731.0,0.0,Zhoushuizi,Dalian,China,121.5386,38.965667,3307,114489.0,0.0,China Eastern Airlines,China,4,1,2312731.0
3,2996,3307,9788,2030-01-20 00:00:00,Zia Intl,Dhaka,Bangladesh,90.397781,23.843333,2996,2627631.0,0.0,Zhoushuizi,Dalian,China,121.5386,38.965667,3307,114489.0,0.0,Southwest Airlines,United States,3,1,2627631.0
3,3629,3307,9808,2030-01-20 00:00:00,Lackland Afb Kelly Fld Annex,San Antonio,United States,-98.581108,29.384228,3629,0.0,0.0,Zhoushuizi,Dalian,China,121.5386,38.965667,3307,114489.0,0.0,Southwest Airlines,United States,3,3,0.0
5,3155,3307,4175,2030-01-20 00:00:00,Jalaluddin,Gorontalo,Indonesia,122.849858,0.637119,3155,4135360.0,0.0,Zhoushuizi,Dalian,China,121.5386,38.965667,3307,114489.0,0.0,Air China,China,5,1,4135360.0
3,3155,3307,9829,2030-01-20 00:00:00,Jalaluddin,Gorontalo,Indonesia,122.849858,0.637119,3155,5317762.0,0.0,Zhoushuizi,Dalian,China,121.5386,38.965667,3307,114489.0,0.0,Southwest Airlines,United States,3,3,5317762.0
4,1673,3307,2787,2030-01-20 00:00:00,Cardak,Denizli,Turkey,29.701297,37.785567,1673,7163665.0,0.0,Zhoushuizi,Dalian,China,121.5386,38.965667,3307,114489.0,0.0,China Eastern Airlines,China,4,1,7163665.0
7,3698,3307,6009,2030-01-20 00:00:00,Kapalua,Lahania-kapalua,United States,-156.673031,20.962936,3698,0.0,0.0,Zhoushuizi,Dalian,China,121.5386,38.965667,3307,114489.0,0.0,US Airways,United States,7,2,0.0
3,3698,3307,9845,2030-01-20 00:00:00,Kapalua,Lahania-kapalua,United States,-156.673031,20.962936,3698,0.0,0.0,Zhoushuizi,Dalian,China,121.5386,38.965667,3307,114489.0,0.0,Southwest Airlines,United States,3,1,0.0
4,3884,3307,2828,2030-01-20 00:00:00,Ellinikon International Airport,Athens,Greece,23.4346,37.5354,3884,0.0,0.0,Zhoushuizi,Dalian,China,121.5386,38.965667,3307,114489.0,0.0,China Eastern Airlines,China,4,1,0.0
3,3884,3307,9900,2030-01-20 00:00:00,Ellinikon International Airport,Athens,Greece,23.4346,37.5354,3884,0.0,0.0,Zhoushuizi,Dalian,China,121.5386,38.965667,3307,114489.0,0.0,Southwest Airlines,United States,3,3,0.0
5,3210,3307,4278,2030-01-20 00:00:00,Sultan Ismail,Johor Bahru,Malaysia,103.669619,1.641308,3210,2545589.0,0.0,Zhoushuizi,Dalian,China,121.5386,38.965667,3307,114489.0,0.0,Air China,China,5,1,2545589.0
3,3210,3307,9981,2030-01-20 00:00:00,Sultan Ismail,Johor Bahru,Malaysia,103.669619,1.641308,3210,3871020.0,0.0,Zhoushuizi,Dalian,China,121.5386,38.965667,3307,114489.0,0.0,Southwest Airlines,United States,3,1,3871020.0
9,3385,3307,1084,2030-01-20 00:00:00,Laughlin Afb,Del Rio,United States,-100.777975,29.359486,3385,0.0,0.0,Zhoushuizi,Dalian,China,121.5386,38.965667,3307,114489.0,0.0,United Airlines,United States,9,1,0.0
4,3385,3307,2888,2030-01-20 00:00:00,Laughlin Afb,Del Rio,United States,-100.777975,29.359486,3385,0.0,0.0,Zhoushuizi,Dalian,China,121.5386,38.965667,3307,114489.0,0.0,China Eastern Airlines,China,4,3,0.0
7,3385,3307,6111,2030-01-20 00:00:00,Laughlin Afb,Del Rio,United States,-100.777975,29.359486,3385,0.0,0.0,Zhoushuizi,Dalian,China,121.5386,38.965667,3307,114489.0,0.0,US Airways,United States,7,1,0.0
3,3385,3307,9995,2030-01-20 00:00:00,Laughlin Afb,Del Rio,United States,-100.777975,29.359486,3385,0.0,0.0,Zhoushuizi,Dalian,China,121.5386,38.965667,3307,114489.0,0.0,Southwest Airlines,United States,3,3,0.0
8,3385,3307,13122,2030-01-20 00:00:00,Laughlin Afb,Del Rio,United States,-100.777975,29.359486,3385,0.0,0.0,Zhoushuizi,Dalian,China,121.5386,38.965667,3307,114489.0,0.0,Delta Air Lines,United States,8,2,0.0
6,3385,3307,15012,2030-01-20 00:00:00,Laughlin Afb,Del Rio,United States,-100.777975,29.359486,3385,0.0,0.0,Zhoushuizi,Dalian,China,121.5386,38.965667,3307,114489.0,0.0,China Southern Airlines,China,6,3,0.0
4,503,3307,2891,2030-01-20 00:00:00,Blackbushe,Blackbushe,United Kingdom,-0.8475,51.323889,503,5887458.0,0.0,Zhoushuizi,Dalian,China,121.5386,38.965667,3307,114489.0,0.0,China Eastern Airlines,China,4,2,5887458.0
3,503,3307,9997,2030-01-20 00:00:00,Blackbushe,Blackbushe,United Kingdom,-0.8475,51.323889,503,7292779.0,0.0,Zhoushuizi,Dalian,China,121.5386,38.965667,3307,114489.0,0.0,Southwest Airlines,United States,3,2,7292779.0
4,3244,3307,2917,2030-01-20 00:00:00,Melbourne Moorabbin,Melbourne,Australia,145.102222,-37.975833,3244,3014734.0,0.0,Zhoushuizi,Dalian,China,121.5386,38.965667,3307,114489.0,0.0,China Eastern Airlines,China,4,2,3014734.0
3,3244,3307,10058,2030-01-20 00:00:00,Melbourne Moorabbin,Melbourne,Australia,145.102222,-37.975833,3244,1042675.0,0.0,Zhoushuizi,Dalian,China,121.5386,38.965667,3307,114489.0,0.0,Southwest Airlines,United States,3,2,1042675.0
4,343,3307,2940,2030-01-20 00:00:00,Dusseldorf,Duesseldorf,Germany,6.766775,51.289453,343,5790467.0,1.0,Zhoushuizi,Dalian,China,121.5386,38.965667,3307,114489.0,0.0,China Eastern Airlines,China,4,3,5790467.0
4,1498,3307,2943,2030-01-20 00:00:00,Bresso,Milano,Italy,9.203333,45.542222,1498,4332787.0,0.0,Zhoushuizi,Dalian,China,121.5386,38.965667,3307,114489.0,0.0,China Eastern Airlines,China,4,2,4332787.0
4,3837,3307,2951,2030-01-20 00:00:00,Eleftherios Venizelos Intl,Athens,Greece,23.944467,37.936358,3837,1924047.0,0.0,Zhoushuizi,Dalian,China,121.5386,38.965667,3307,114489.0,0.0,China Eastern Airlines,China,4,1,1924047.0
5,3837,3307,4394,2030-01-20 00:00:00,Eleftherios Venizelos Intl,Athens,Greece,23.944467,37.936358,3837,525099.0,0.0,Zhoushuizi,Dalian,China,121.5386,38.965667,3307,114489.0,0.0,Air China,China,5,3,525099.0
3,3837,3307,10130,2030-01-20 00:00:00,Eleftherios Venizelos Intl,Athens,Greece,23.944467,37.936358,3837,3199031.0,0.0,Zhoushuizi,Dalian,China,121.5386,38.965667,3307,114489.0,0.0,Southwest Airlines,United States,3,1,3199031.0
4,2223,3307,2991,2030-01-20 00:00:00,Hualien,Hualien,Taiwan,121.616906,24.023725,2223,0.0,0.0,Zhoushuizi,Dalian,China,121.5386,38.965667,3307,114489.0,0.0,China Eastern Airlines,China,4,2,0.0
7,2223,3307,6540,2030-01-20 00:00:00,Hualien,Hualien,Taiwan,121.616906,24.023725,2223,0.0,0.0,Zhoushuizi,Dalian,China,121.5386,38.965667,3307,114489.0,0.0,US Airways,United States,7,1,0.0
3,2223,3307,10188,2030-01-20 00:00:00,Hualien,Hualien,Taiwan,121.616906,24.023725,2223,0.0,0.0,Zhoushuizi,Dalian,China,121.5386,38.965667,3307,114489.0,0.0,Southwest Airlines,United States,3,2,0.0
9,3731,3307,1661,2030-01-20 00:00:00,Lubbock Preston Smith Intl,Lubbock,United States,-101.822778,33.663639,3731,0.0,0.0,Zhoushuizi,Dalian,China,121.5386,38.965667,3307,114489.0,0.0,United Airlines,United States,9,2,0.0
4,3731,3307,3004,2030-01-20 00:00:00,Lubbock Preston Smith Intl,Lubbock,United States,-101.822778,33.663639,3731,0.0,0.0,Zhoushuizi,Dalian,China,121.5386,38.965667,3307,114489.0,0.0,China Eastern Airlines,China,4,2,0.0
8,3731,3307,13484,2030-01-20 00:00:00,Lubbock Preston Smith Intl,Lubbock,United States,-101.822778,33.663639,3731,0.0,0.0,Zhoushuizi,Dalian,China,121.5386,38.965667,3307,114489.0,0.0,Delta Air Lines,United States,8,3,0.0
6,3731,3307,15444,2030-01-20 00:00:00,Lubbock Preston Smith Intl,Lubbock,United States,-101.822778,33.663639,3731,0.0,0.0,Zhoushuizi,Dalian,China,121.5386,38.965667,3307,114489.0,0.0,China Southern Airlines,China,6,1,0.0
4,3268,3307,3099,2030-01-20 00:00:00,Wagga Wagga,Wagga Wagga,Australia,147.466389,-35.165278,3268,534639.0,0.0,Zhoushuizi,Dalian,China,121.5386,38.965667,3307,114489.0,0.0,China Eastern Airlines,China,4,2,534639.0
5,3268,3307,4484,2030-01-20 00:00:00,Wagga Wagga,Wagga Wagga,Australia,147.466389,-35.165278,3268,1782599.0,0.0,Zhoushuizi,Dalian,China,121.5386,38.965667,3307,114489.0,0.0,Air China,China,5,1,1782599.0
3,3268,3307,10219,2030-01-20 00:00:00,Wagga Wagga,Wagga Wagga,Australia,147.466389,-35.165278,3268,2343406.0,0.0,Zhoushuizi,Dalian,China,121.5386,38.965667,3307,114489.0,0.0,Southwest Airlines,United States,3,3,2343406.0
3,2311,3307,10236,2030-01-20 00:00:00,Jinhae,Chinhae,South Korea,128.695792,35.141175,2311,0.0,0.0,Zhoushuizi,Dalian,China,121.5386,38.965667,3307,114489.0,0.0,Southwest Airlines,United States,3,2,0.0
7,3478,3307,6773,2030-01-20 00:00:00,Miami Intl,Miami,United States,-80.290556,25.79325,3478,0.0,0.0,Zhoushuizi,Dalian,China,121.5386,38.965667,3307,114489.0,0.0,US Airways,United States,7,1,0.0
3,3478,3307,10352,2030-01-20 00:00:00,Miami Intl,Miami,United States,-80.290556,25.79325,3478,0.0,0.0,Zhoushuizi,Dalian,China,121.5386,38.965667,3307,114489.0,0.0,Southwest Airlines,United States,3,1,0.0
4,3370,3307,3197,2030-01-20 00:00:00,North Perry,Hollywood,United States,-80.240722,26.001222,3370,0.0,0.0,Zhoushuizi,Dalian,China,121.5386,38.965667,3307,114489.0,0.0,China Eastern Airlines,China,4,3,0.0
7,3370,3307,6791,2030-01-20 00:00:00,North Perry,Hollywood,United States,-80.240722,26.001222,3370,0.0,0.0,Zhoushuizi,Dalian,China,121.5386,38.965667,3307,114489.0,0.0,US Airways,United States,7,3,0.0
3,3370,3307,10353,2030-01-20 00:00:00,North Perry,Hollywood,United States,-80.240722,26.001222,3370,0.0,0.0,Zhoushuizi,Dalian,China,121.5386,38.965667,3307,114489.0,0.0,Southwest Airlines,United States,3,1,0.0
8,3370,3307,13808,2030-01-20 00:00:00,North Perry,Hollywood,United States,-80.240722,26.001222,3370,0.0,0.0,Zhoushuizi,Dalian,China,121.5386,38.965667,3307,114489.0,0.0,Delta Air Lines,United States,8,2,0.0
3,3116,3307,10354,2030-01-20 00:00:00,Phu Quoc,Phuquoc,Vietnam,103.967169,10.227025,3116,1363081.0,0.0,Zhoushuizi,Dalian,China,121.5386,38.965667,3307,114489.0,0.0,Southwest Airlines,United States,3,2,1363081.0
3,3222,3307,10421,2030-01-20 00:00:00,Seletar,Singapore,Singapore,103.867653,1.41695,3222,1608861.0,0.0,Zhoushuizi,Dalian,China,121.5386,38.965667,3307,114489.0,0.0,Southwest Airlines,United States,3,1,1608861.0
4,3265,3307,3245,2030-01-20 00:00:00,Richmond,Richmond,Australia,150.780833,-33.600556,3265,280441.0,0.0,Zhoushuizi,Dalian,China,121.5386,38.965667,3307,114489.0,0.0,China Eastern Airlines,China,4,1,280441.0
3,3265,3307,10444,2030-01-20 00:00:00,Richmond,Richmond,Australia,150.780833,-33.600556,3265,2168975.0,0.0,Zhoushuizi,Dalian,China,121.5386,38.965667,3307,114489.0,0.0,Southwest Airlines,United States,3,2,2168975.0
4,2220,3307,3370,2030-01-20 00:00:00,Sungshan,Taipei,Taiwan,121.5525,25.069722,2220,0.0,0.0,Zhoushuizi,Dalian,China,121.5386,38.965667,3307,114489.0,0.0,China Eastern Airlines,China,4,3,0.0
5,2220,3307,4743,2030-01-20 00:00:00,Sungshan,Taipei,Taiwan,121.5525,25.069722,2220,0.0,0.0,Zhoushuizi,Dalian,China,121.5386,38.965667,3307,114489.0,0.0,Air China,China,5,3,0.0
3,2220,3307,10523,2030-01-20 00:00:00,Sungshan,Taipei,Taiwan,121.5525,25.069722,2220,0.0,0.0,Zhoushuizi,Dalian,China,121.5386,38.965667,3307,114489.0,0.0,Southwest Airlines,United States,3,2,0.0
4,154,3307,3595,2030-01-20 00:00:00,Norman Wells,Norman Wells,Canada,-126.798219,65.281617,154,2630335.0,0.0,Zhoushuizi,Dalian,China,121.5386,38.965667,3307,114489.0,0.0,China Eastern Airlines,China,4,3,2630335.0
3,154,3307,10741,2030-01-20 00:00:00,Norman Wells,Norman Wells,Canada,-126.798219,65.281617,154,2415765.0,0.0,Zhoushuizi,Dalian,China,121.5386,38.965667,3307,114489.0,0.0,Southwest Airlines,United States,3,1,2415765.0
4,191,3307,3597,2030-01-20 00:00:00,Mont Joli,Mont Joli,Canada,-68.208056,48.608612,191,3300267.0,0.0,Zhoushuizi,Dalian,China,121.5386,38.965667,3307,114489.0,0.0,China Eastern Airlines,China,4,1,3300267.0
3,3182,3307,9564,2030-01-20 00:00:00,Pinang Kampai,Dumai,Indonesia,101.433558,1.609194,3182,3693107.0,0.0,Zhoushuizi,Dalian,China,121.5386,38.965667,3307,114489.0,0.0,Southwest Airlines,United States,3,2,3693107.0
5,4267,3307,3823,2030-01-20 00:00:00,Yuzhny,Ivanovo,Russia,40.940833,56.939444,4267,7543558.0,0.0,Zhoushuizi,Dalian,China,121.5386,38.965667,3307,114489.0,0.0,Air China,China,5,3,7543558.0
3,4267,3307,9576,2030-01-20 00:00:00,Yuzhny,Ivanovo,Russia,40.940833,56.939444,4267,7265397.0,0.0,Zhoushuizi,Dalian,China,121.5386,38.965667,3307,114489.0,0.0,Southwest Airlines,United States,3,2,7265397.0
3,3827,3307,9612,2030-01-20 00:00:00,Adi Sumarmo Wiryokusumo,Solo City,Indonesia,110.756892,-7.516089,3827,3882040.0,0.0,Zhoushuizi,Dalian,China,121.5386,38.965667,3307,114489.0,0.0,Southwest Airlines,United States,3,2,3882040.0
5,4011,3307,4048,2030-01-20 00:00:00,Ambouli International Airport,Djibouti,Djibouti,43.1594,11.5472,4011,723087.0,0.0,Zhoushuizi,Dalian,China,121.5386,38.965667,3307,114489.0,0.0,Air China,China,5,3,723087.0
3,4011,3307,9725,2030-01-20 00:00:00,Ambouli International Airport,Djibouti,Djibouti,43.1594,11.5472,4011,2533037.0,0.0,Zhoushuizi,Dalian,China,121.5386,38.965667,3307,114489.0,0.0,Southwest Airlines,United States,3,1,2533037.0
3,2269,3307,9777,2030-01-20 00:00:00,Shizuhama,Yaizu,Japan,138.298056,34.812778,2269,1800058.0,0.0,Zhoushuizi,Dalian,China,121.5386,38.965667,3307,114489.0,0.0,Southwest Airlines,United States,3,1,1800058.0
3,3095,3307,9799,2030-01-20 00:00:00,Cha Ian,Nakhon Si Thammarat,Thailand,99.955625,8.471147,3095,2320632.0,0.0,Zhoushuizi,Dalian,China,121.5386,38.965667,3307,114489.0,0.0,Southwest Airlines,United States,3,1,2320632.0
4,3976,3307,2778,2030-01-20 00:00:00,Telluride,Telluride,United States,-107.90848,37.953759,3976,0.0,0.0,Zhoushuizi,Dalian,China,121.5386,38.965667,3307,114489.0,0.0,China Eastern Airlines,China,4,1,0.0
3,3976,3307,9839,2030-01-20 00:00:00,Telluride,Telluride,United States,-107.90848,37.953759,3976,0.0,0.0,Zhoushuizi,Dalian,China,121.5386,38.965667,3307,114489.0,0.0,Southwest Airlines,United States,3,1,0.0
4,4188,3307,2812,2030-01-20 00:00:00,Chumphon,Chumphon,Thailand,99.361706,10.7112,4188,1115262.0,0.0,Zhoushuizi,Dalian,China,121.5386,38.965667,3307,114489.0,0.0,China Eastern Airlines,China,4,1,1115262.0
3,4188,3307,9870,2030-01-20 00:00:00,Chumphon,Chumphon,Thailand,99.361706,10.7112,4188,2156160.0,0.0,Zhoushuizi,Dalian,China,121.5386,38.965667,3307,114489.0,0.0,Southwest Airlines,United States,3,1,2156160.0
5,4221,3307,4356,2030-01-20 00:00:00,Ust-Ilimsk,Ust Ilimsk,Russia,102.566,58.135,4221,6644708.0,0.0,Zhoushuizi,Dalian,China,121.5386,38.965667,3307,114489.0,0.0,Air China,China,5,1,6644708.0
4,3039,3307,2928,2030-01-20 00:00:00,Wattay Intl,Vientiane,Laos,102.563256,17.988322,3039,454768.0,0.0,Zhoushuizi,Dalian,China,121.5386,38.965667,3307,114489.0,0.0,China Eastern Airlines,China,4,2,454768.0
3,3039,3307,10062,2030-01-20 00:00:00,Wattay Intl,Vientiane,Laos,102.563256,17.988322,3039,2955233.0,0.0,Zhoushuizi,Dalian,China,121.5386,38.965667,3307,114489.0,0.0,Southwest Airlines,United States,3,3,2955233.0
3,2335,3307,10067,2030-01-20 00:00:00,Yonaguni,Yonaguni Jima,Japan,122.977778,24.466944,2335,0.0,0.0,Zhoushuizi,Dalian,China,121.5386,38.965667,3307,114489.0,0.0,Southwest Airlines,United States,3,3,0.0
3,4079,3307,10068,2030-01-20 00:00:00,Dhangarhi,Dhangarhi,Nepal,80.581944,28.753333,4079,1977008.0,0.0,Zhoushuizi,Dalian,China,121.5386,38.965667,3307,114489.0,0.0,Southwest Airlines,United States,3,2,1977008.0
3,2322,3307,10191,2030-01-20 00:00:00,Yecheon,Yechon,South Korea,128.35485,36.631933,2322,0.0,0.0,Zhoushuizi,Dalian,China,121.5386,38.965667,3307,114489.0,0.0,Southwest Airlines,United States,3,2,0.0
3,2954,3307,10348,2030-01-20 00:00:00,Phnom Penh Intl,Phnom-penh,Cambodia,104.844139,11.546556,2954,1303536.0,0.0,Zhoushuizi,Dalian,China,121.5386,38.965667,3307,114489.0,0.0,Southwest Airlines,United States,3,2,1303536.0
4,2290,3307,3195,2030-01-20 00:00:00,Misawa Ab,Misawa,Japan,141.368364,40.703222,2290,1418023.0,0.0,Zhoushuizi,Dalian,China,121.5386,38.965667,3307,114489.0,0.0,China Eastern Airlines,China,4,1,1418023.0
5,4034,3307,4578,2030-01-20 00:00:00,Oudomxay,Muang Xay,Laos,101.994,20.6827,4034,1043230.0,0.0,Zhoushuizi,Dalian,China,121.5386,38.965667,3307,114489.0,0.0,Air China,China,5,3,1043230.0
3,4034,3307,10411,2030-01-20 00:00:00,Oudomxay,Muang Xay,Laos,101.994,20.6827,4034,270347.0,0.0,Zhoushuizi,Dalian,China,121.5386,38.965667,3307,114489.0,0.0,Southwest Airlines,United States,3,3,270347.0
3,2905,3307,10438,2030-01-20 00:00:00,Bryansk,Bryansk,Russia,34.176447,53.214194,2905,6275202.0,0.0,Zhoushuizi,Dalian,China,121.5386,38.965667,3307,114489.0,0.0,Southwest Airlines,United States,3,1,6275202.0
5,3922,3307,4631,2030-01-20 00:00:00,Domododevo,Moscow,Russia,37.906111,55.408611,3922,8251471.0,0.0,Zhoushuizi,Dalian,China,121.5386,38.965667,3307,114489.0,0.0,Air China,China,5,1,8251471.0
3,3922,3307,10452,2030-01-20 00:00:00,Domododevo,Moscow,Russia,37.906111,55.408611,3922,6696022.0,0.0,Zhoushuizi,Dalian,China,121.5386,38.965667,3307,114489.0,0.0,Southwest Airlines,United States,3,1,6696022.0
3,2320,3307,10469,2030-01-20 00:00:00,Pohang,Pohang,South Korea,129.420486,35.987858,2320,0.0,0.0,Zhoushuizi,Dalian,China,121.5386,38.965667,3307,114489.0,0.0,Southwest Airlines,United States,3,2,0.0
3,3999,3307,10513,2030-01-20 00:00:00,Vancouver Coal Harbour,Vancouver,Canada,-123.115833,49.289722,3999,0.0,0.0,Zhoushuizi,Dalian,China,121.5386,38.965667,3307,114489.0,0.0,Southwest Airlines,United States,3,3,0.0
3,2309,3307,9591,2030-01-20 00:00:00,Macomb Municipal Airport,Macomb,United States,-90.6523889,40.5200833,2309,0.0,0.0,Zhoushuizi,Dalian,China,121.5386,38.965667,3307,114489.0,0.0,Southwest Airlines,United States,3,2,0.0
3,3830,3307,9691,2030-01-20 00:00:00,Nakhon Si Thammarat,Nakhon Si Thammarat,Thailand,99.944725,8.539617,3830,1944904.0,0.0,Zhoushuizi,Dalian,China,121.5386,38.965667,3307,114489.0,0.0,Southwest Airlines,United States,3,2,1944904.0
3,6978,3307,9728,2030-01-20 00:00:00,Yarram,Yarram,Australia,146.75,-38.56,6978,1801548.0,0.0,Zhoushuizi,Dalian,China,121.5386,38.965667,3307,114489.0,0.0,Southwest Airlines,United States,3,2,1801548.0
3,2267,3307,10516,2030-01-20 00:00:00,Oki,Oki Island,Japan,133.324844,36.181125,2267,1159957.0,0.0,Zhoushuizi,Dalian,China,121.5386,38.965667,3307,114489.0,0.0,Southwest Airlines,United States,3,2,1159957.0
3,5347,3307,9715,2030-01-20 00:00:00,Sharya,Sharya,Russia,45.3314,58.2321,5347,8639823.0,0.0,Zhoushuizi,Dalian,China,121.5386,38.965667,3307,114489.0,0.0,Southwest Airlines,United States,3,1,8639823.0
3,2265,3307,9975,2030-01-20 00:00:00,Hamamatsu,Hamamatsu,Japan,137.703083,34.750239,2265,3332522.0,0.0,Zhoushuizi,Dalian,China,121.5386,38.965667,3307,114489.0,0.0,Southwest Airlines,United States,3,3,3332522.0
3,2250,3307,9976,2030-01-20 00:00:00,New Tanegashima,Tanegashima,Japan,130.991231,30.605067,2250,2569198.0,0.0,Zhoushuizi,Dalian,China,121.5386,38.965667,3307,114489.0,0.0,Southwest Airlines,United States,3,3,2569198.0
3,2276,3307,10069,2030-01-20 00:00:00,Kochi,Kochi,Japan,133.669444,33.546111,2276,1646338.0,0.0,Zhoushuizi,Dalian,China,121.5386,38.965667,3307,114489.0,0.0,Southwest Airlines,United States,3,1,1646338.0
3,2256,3307,10134,2030-01-20 00:00:00,Kumamoto,Kumamoto,Japan,130.85505,32.837319,2256,1751132.0,0.0,Zhoushuizi,Dalian,China,121.5386,38.965667,3307,114489.0,0.0,Southwest Airlines,United States,3,2,1751132.0
3,2270,3307,10192,2030-01-20 00:00:00,Hiroshima,Hiroshima,Japan,132.919444,34.436111,2270,3843301.0,0.0,Zhoushuizi,Dalian,China,121.5386,38.965667,3307,114489.0,0.0,Southwest Airlines,United States,3,2,3843301.0
3,7424,3307,10540,2030-01-20 00:00:00,Hohe Duene,Warnemuende,Germany,12.132082,54.181438,7424,5249657.0,1.0,Zhoushuizi,Dalian,China,121.5386,38.965667,3307,114489.0,0.0,Southwest Airlines,United States,3,1,5249657.0
5,1965,3273,3613,2030-01-20 00:00:00,La Tontouta,Noumea,New Caledonia,166.212972,-22.014553,1965,0.0,0.0,Wusu,Taiyuan,China,112.628428,37.746897,3273,114489.0,0.0,Air China,China,5,1,0.0
5,575,3273,3616,2030-01-20 00:00:00,Mount Pleasant,Mount Pleasant,Falkland Islands,-58.447222,-51.822777,575,0.0,0.0,Wusu,Taiyuan,China,112.628428,37.746897,3273,114489.0,0.0,Air China,China,5,3,0.0
5,3786,3273,3640,2030-01-20 00:00:00,Robins Afb,Macon,United States,-83.59185,32.640144,3786,0.0,0.0,Wusu,Taiyuan,China,112.628428,37.746897,3273,114489.0,0.0,Air China,China,5,1,0.0
5,3226,3273,3649,2030-01-20 00:00:00,Alice Springs,Alice Springs,Australia,133.902222,-23.806667,3226,2425188.0,0.0,Wusu,Taiyuan,China,112.628428,37.746897,3273,114489.0,0.0,Air China,China,5,11,2425188.0
5,1358,3273,3762,2030-01-20 00:00:00,Creil,Creil,France,2.519139,49.253547,1358,8415543.0,1.0,Wusu,Taiyuan,China,112.628428,37.746897,3273,114489.0,0.0,Air China,China,5,3,8415543.0
5,3012,3273,3952,2030-01-20 00:00:00,Dehradun,Dehra Dun,India,78.180256,30.189689,3012,32190167.0,0.0,Wusu,Taiyuan,China,112.628428,37.746897,3273,114489.0,0.0,Air China,China,5,3,32190167.0
5,2137,3273,3994,2030-01-20 00:00:00,Zirku,Zirku,United Arab Emirates,53.077833,24.861542,2137,0.0,0.0,Wusu,Taiyuan,China,112.628428,37.746897,3273,114489.0,0.0,Air China,China,5,3,0.0
5,2248,3273,4033,2030-01-20 00:00:00,Fukue,Fukue,Japan,128.832808,32.666269,2248,3121310.0,0.0,Wusu,Taiyuan,China,112.628428,37.746897,3273,114489.0,0.0,Air China,China,5,30,3121310.0
5,3111,3273,4053,2030-01-20 00:00:00,Kep,Kep,Vietnam,106.261083,21.394639,3111,2945708.0,0.0,Wusu,Taiyuan,China,112.628428,37.746897,3273,114489.0,0.0,Air China,China,5,1,2945708.0
5,2996,3273,4118,2030-01-20 00:00:00,Zia Intl,Dhaka,Bangladesh,90.397781,23.843333,2996,1666585.0,0.0,Wusu,Taiyuan,China,112.628428,37.746897,3273,114489.0,0.0,Air China,China,5,3,1666585.0
5,3155,3273,4167,2030-01-20 00:00:00,Jalaluddin,Gorontalo,Indonesia,122.849858,0.637119,3155,4024927.0,0.0,Wusu,Taiyuan,China,112.628428,37.746897,3273,114489.0,0.0,Air China,China,5,2,4024927.0
4,1673,3273,2785,2030-01-20 00:00:00,Cardak,Denizli,Turkey,29.701297,37.785567,1673,8345498.0,0.0,Wusu,Taiyuan,China,112.628428,37.746897,3273,114489.0,0.0,China Eastern Airlines,China,4,3,8345498.0
5,3884,3273,4231,2030-01-20 00:00:00,Ellinikon International Airport,Athens,Greece,23.4346,37.5354,3884,0.0,0.0,Wusu,Taiyuan,China,112.628428,37.746897,3273,114489.0,0.0,Air China,China,5,3,0.0
5,3210,3273,4276,2030-01-20 00:00:00,Sultan Ismail,Johor Bahru,Malaysia,103.669619,1.641308,3210,2075810.0,0.0,Wusu,Taiyuan,China,112.628428,37.746897,3273,114489.0,0.0,Air China,China,5,2,2075810.0
5,3385,3273,4326,2030-01-20 00:00:00,Laughlin Afb,Del Rio,United States,-100.777975,29.359486,3385,0.0,0.0,Wusu,Taiyuan,China,112.628428,37.746897,3273,114489.0,0.0,Air China,China,5,2,0.0
7,3385,3273,6075,2030-01-20 00:00:00,Laughlin Afb,Del Rio,United States,-100.777975,29.359486,3385,0.0,0.0,Wusu,Taiyuan,China,112.628428,37.746897,3273,114489.0,0.0,US Airways,United States,7,1,0.0
5,503,3273,4328,2030-01-20 00:00:00,Blackbushe,Blackbushe,United Kingdom,-0.8475,51.323889,503,6415900.0,0.0,Wusu,Taiyuan,China,112.628428,37.746897,3273,114489.0,0.0,Air China,China,5,3,6415900.0
5,3244,3273,4357,2030-01-20 00:00:00,Melbourne Moorabbin,Melbourne,Australia,145.102222,-37.975833,3244,2070666.0,0.0,Wusu,Taiyuan,China,112.628428,37.746897,3273,114489.0,0.0,Air China,China,5,2,2070666.0
5,3951,3273,4375,2030-01-20 00:00:00,Franklin,Franklin,United States,-79.860362,41.377874,3951,0.0,0.0,Wusu,Taiyuan,China,112.628428,37.746897,3273,114489.0,0.0,Air China,China,5,2,0.0
4,2223,3273,2986,2030-01-20 00:00:00,Hualien,Hualien,Taiwan,121.616906,24.023725,2223,0.0,0.0,Wusu,Taiyuan,China,112.628428,37.746897,3273,114489.0,0.0,China Eastern Airlines,China,4,3,0.0
5,2223,3273,4442,2030-01-20 00:00:00,Hualien,Hualien,Taiwan,121.616906,24.023725,2223,0.0,0.0,Wusu,Taiyuan,China,112.628428,37.746897,3273,114489.0,0.0,Air China,China,5,2,0.0
3,2223,3273,10184,2030-01-20 00:00:00,Hualien,Hualien,Taiwan,121.616906,24.023725,2223,0.0,0.0,Wusu,Taiyuan,China,112.628428,37.746897,3273,114489.0,0.0,Southwest Airlines,United States,3,3,0.0
4,3268,3273,3011,2030-01-20 00:00:00,Wagga Wagga,Wagga Wagga,Australia,147.466389,-35.165278,3268,1812990.0,0.0,Wusu,Taiyuan,China,112.628428,37.746897,3273,114489.0,0.0,China Eastern Airlines,China,4,1,1812990.0
5,3268,3273,4452,2030-01-20 00:00:00,Wagga Wagga,Wagga Wagga,Australia,147.466389,-35.165278,3268,2970277.0,0.0,Wusu,Taiyuan,China,112.628428,37.746897,3273,114489.0,0.0,Air China,China,5,1,2970277.0
5,3214,3273,4502,2030-01-20 00:00:00,Sultan Mahmud,Kuala Terengganu,Malaysia,103.10336,5.382639,3214,3680613.0,0.0,Wusu,Taiyuan,China,112.628428,37.746897,3273,114489.0,0.0,Air China,China,5,2,3680613.0
5,3255,3273,4503,2030-01-20 00:00:00,Adelaide Parafield,Adelaide,Australia,138.633056,-34.793333,3255,1440204.0,0.0,Wusu,Taiyuan,China,112.628428,37.746897,3273,114489.0,0.0,Air China,China,5,1,1440204.0
5,3116,3273,4539,2030-01-20 00:00:00,Phu Quoc,Phuquoc,Vietnam,103.967169,10.227025,3116,2907654.0,0.0,Wusu,Taiyuan,China,112.628428,37.746897,3273,114489.0,0.0,Air China,China,5,3,2907654.0
5,3222,3273,4590,2030-01-20 00:00:00,Seletar,Singapore,Singapore,103.867653,1.41695,3222,2672980.0,0.0,Wusu,Taiyuan,China,112.628428,37.746897,3273,114489.0,0.0,Air China,China,5,2,2672980.0
5,3265,3273,4621,2030-01-20 00:00:00,Richmond,Richmond,Australia,150.780833,-33.600556,3265,2987937.0,0.0,Wusu,Taiyuan,China,112.628428,37.746897,3273,114489.0,0.0,Air China,China,5,2,2987937.0
5,2220,3273,4733,2030-01-20 00:00:00,Sungshan,Taipei,Taiwan,121.5525,25.069722,2220,0.0,0.0,Wusu,Taiyuan,China,112.628428,37.746897,3273,114489.0,0.0,Air China,China,5,3,0.0
5,154,3273,5019,2030-01-20 00:00:00,Norman Wells,Norman Wells,Canada,-126.798219,65.281617,154,3613921.0,0.0,Wusu,Taiyuan,China,112.628428,37.746897,3273,114489.0,0.0,Air China,China,5,3,3613921.0
4,1087,3273,2355,2030-01-20 00:00:00,Sao Pedro,Sao Vicente Island,Cape Verde,-25.054661,16.833689,1087,0.0,0.0,Wusu,Taiyuan,China,112.628428,37.746897,3273,114489.0,0.0,China Eastern Airlines,China,4,3,0.0
4,1107,3273,2378,2030-01-20 00:00:00,Abu Simbel,Abu Simbel,Egypt,31.611722,22.375953,1107,3211706.0,0.0,Wusu,Taiyuan,China,112.628428,37.746897,3273,114489.0,0.0,China Eastern Airlines,China,4,1,3211706.0
5,3182,3273,3766,2030-01-20 00:00:00,Pinang Kampai,Dumai,Indonesia,101.433558,1.609194,3182,4762898.0,0.0,Wusu,Taiyuan,China,112.628428,37.746897,3273,114489.0,0.0,Air China,China,5,1,4762898.0
4,4267,3273,2452,2030-01-20 00:00:00,Yuzhny,Ivanovo,Russia,40.940833,56.939444,4267,8241352.0,0.0,Wusu,Taiyuan,China,112.628428,37.746897,3273,114489.0,0.0,China Eastern Airlines,China,4,1,8241352.0
5,4267,3273,3809,2030-01-20 00:00:00,Yuzhny,Ivanovo,Russia,40.940833,56.939444,4267,7062122.0,0.0,Wusu,Taiyuan,China,112.628428,37.746897,3273,114489.0,0.0,Air China,China,5,1,7062122.0
5,3827,3273,3868,2030-01-20 00:00:00,Adi Sumarmo Wiryokusumo,Solo City,Indonesia,110.756892,-7.516089,3827,3296996.0,0.0,Wusu,Taiyuan,China,112.628428,37.746897,3273,114489.0,0.0,Air China,China,5,2,3296996.0
5,6078,3273,4032,2030-01-20 00:00:00,Four Corners,Four Corners,United States,-109.045172,36.998976,6078,0.0,0.0,Wusu,Taiyuan,China,112.628428,37.746897,3273,114489.0,0.0,Air China,China,5,1,0.0
4,4011,3273,2652,2030-01-20 00:00:00,Ambouli International Airport,Djibouti,Djibouti,43.1594,11.5472,4011,2772628.0,0.0,Wusu,Taiyuan,China,112.628428,37.746897,3273,114489.0,0.0,China Eastern Airlines,China,4,2,2772628.0
5,4011,3273,4037,2030-01-20 00:00:00,Ambouli International Airport,Djibouti,Djibouti,43.1594,11.5472,4011,2752621.0,0.0,Wusu,Taiyuan,China,112.628428,37.746897,3273,114489.0,0.0,Air China,China,5,1,2752621.0
5,3095,3273,4126,2030-01-20 00:00:00,Cha Ian,Nakhon Si Thammarat,Thailand,99.955625,8.471147,3095,1965088.0,0.0,Wusu,Taiyuan,China,112.628428,37.746897,3273,114489.0,0.0,Air China,China,5,3,1965088.0
4,4188,3273,2809,2030-01-20 00:00:00,Chumphon,Chumphon,Thailand,99.361706,10.7112,4188,3279836.0,0.0,Wusu,Taiyuan,China,112.628428,37.746897,3273,114489.0,0.0,China Eastern Airlines,China,4,3,3279836.0
5,3043,3273,4275,2030-01-20 00:00:00,Janakpur,Janakpur,Nepal,85.922394,26.708806,3043,2276602.0,0.0,Wusu,Taiyuan,China,112.628428,37.746897,3273,114489.0,0.0,Air China,China,5,3,2276602.0
3,3925,3273,10012,2030-01-20 00:00:00,East 34th Street Heliport,New York,United States,-73.971944,40.7425,3925,0.0,0.0,Wusu,Taiyuan,China,112.628428,37.746897,3273,114489.0,0.0,Southwest Airlines,United States,3,51,0.0
5,2335,3273,4365,2030-01-20 00:00:00,Yonaguni,Yonaguni Jima,Japan,122.977778,24.466944,2335,0.0,0.0,Wusu,Taiyuan,China,112.628428,37.746897,3273,114489.0,0.0,Air China,China,5,3,0.0
4,4846,3273,2995,2030-01-20 00:00:00,Apartadó Airport,Apartadó,Colombia,-77.2,7.033,4846,5964779.0,0.0,Wusu,Taiyuan,China,112.628428,37.746897,3273,114489.0,0.0,China Eastern Airlines,China,4,2,5964779.0
5,4846,3273,4447,2030-01-20 00:00:00,Apartadó Airport,Apartadó,Colombia,-77.2,7.033,4846,5086818.0,0.0,Wusu,Taiyuan,China,112.628428,37.746897,3273,114489.0,0.0,Air China,China,5,2,5086818.0
5,2954,3273,4536,2030-01-20 00:00:00,Phnom Penh Intl,Phnom-penh,Cambodia,104.844139,11.546556,2954,486936.0,0.0,Wusu,Taiyuan,China,112.628428,37.746897,3273,114489.0,0.0,Air China,China,5,1,486936.0
5,3146,3273,4537,2030-01-20 00:00:00,Taungoo,Taungoo,Burma,96.401239,19.031275,3146,0.0,0.0,Wusu,Taiyuan,China,112.628428,37.746897,3273,114489.0,0.0,Air China,China,5,1,0.0
4,4034,3273,3213,2030-01-20 00:00:00,Oudomxay,Muang Xay,Laos,101.994,20.6827,4034,2490097.0,0.0,Wusu,Taiyuan,China,112.628428,37.746897,3273,114489.0,0.0,China Eastern Airlines,China,4,3,2490097.0
5,4034,3273,4558,2030-01-20 00:00:00,Oudomxay,Muang Xay,Laos,101.994,20.6827,4034,2582997.0,0.0,Wusu,Taiyuan,China,112.628428,37.746897,3273,114489.0,0.0,Air China,China,5,3,2582997.0
5,2905,3273,4603,2030-01-20 00:00:00,Bryansk,Bryansk,Russia,34.176447,53.214194,2905,6677178.0,0.0,Wusu,Taiyuan,China,112.628428,37.746897,3273,114489.0,0.0,Air China,China,5,3,6677178.0
5,3922,3273,4623,2030-01-20 00:00:00,Domododevo,Moscow,Russia,37.906111,55.408611,3922,6553628.0,0.0,Wusu,Taiyuan,China,112.628428,37.746897,3273,114489.0,0.0,Air China,China,5,3,6553628.0
4,3999,3273,3336,2030-01-20 00:00:00,Vancouver Coal Harbour,Vancouver,Canada,-123.115833,49.289722,3999,0.0,0.0,Wusu,Taiyuan,China,112.628428,37.746897,3273,114489.0,0.0,China Eastern Airlines,China,4,3,0.0
5,3999,3273,4716,2030-01-20 00:00:00,Vancouver Coal Harbour,Vancouver,Canada,-123.115833,49.289722,3999,0.0,0.0,Wusu,Taiyuan,China,112.628428,37.746897,3273,114489.0,0.0,Air China,China,5,2,0.0
3,3999,3273,10508,2030-01-20 00:00:00,Vancouver Coal Harbour,Vancouver,Canada,-123.115833,49.289722,3999,0.0,0.0,Wusu,Taiyuan,China,112.628428,37.746897,3273,114489.0,0.0,Southwest Airlines,United States,3,2,0.0
5,7442,3273,5013,2030-01-20 00:00:00,Wickenburg Municipal Airport,Wickenburg,United States,-112.7990036,33.96889877,7442,0.0,0.0,Wusu,Taiyuan,China,112.628428,37.746897,3273,114489.0,0.0,Air China,China,5,2,0.0
5,5298,3273,3622,2030-01-20 00:00:00,Worcester Regional Airport,Worcester,United States,-71.8757,42.2673,5298,0.0,0.0,Wusu,Taiyuan,China,112.628428,37.746897,3273,114489.0,0.0,Air China,China,5,2,0.0
5,7590,3273,3631,2030-01-20 00:00:00,Volosovo,Volosovo,Russia,37.4517,55.0683,7590,7404682.0,0.0,Wusu,Taiyuan,China,112.628428,37.746897,3273,114489.0,0.0,Air China,China,5,2,7404682.0
5,2995,3273,3947,2030-01-20 00:00:00,Tejgaon,Dhaka,Bangladesh,90.382689,23.778783,2995,1855017.0,0.0,Wusu,Taiyuan,China,112.628428,37.746897,3273,114489.0,0.0,Air China,China,5,2,1855017.0
5,3108,3273,3948,2030-01-20 00:00:00,Mara Lodges,Mara Lodges,Kenya,35.099931,-1.183581,3108,1387504.0,0.0,Wusu,Taiyuan,China,112.628428,37.746897,3273,114489.0,0.0,Air China,China,5,2,1387504.0
5,5248,3273,3953,2030-01-20 00:00:00,Muren Airport,Muren,Mongolia,100.099,49.6633,5248,2215423.0,0.0,Wusu,Taiyuan,China,112.628428,37.746897,3273,114489.0,0.0,Air China,China,5,2,2215423.0
5,3830,3273,3989,2030-01-20 00:00:00,Nakhon Si Thammarat,Nakhon Si Thammarat,Thailand,99.944725,8.539617,3830,2558167.0,0.0,Wusu,Taiyuan,China,112.628428,37.746897,3273,114489.0,0.0,Air China,China,5,3,2558167.0
5,6978,3273,4055,2030-01-20 00:00:00,Yarram,Yarram,Australia,146.75,-38.56,6978,2581826.0,0.0,Wusu,Taiyuan,China,112.628428,37.746897,3273,114489.0,0.0,Air China,China,5,2,2581826.0
5,6094,3273,4116,2030-01-20 00:00:00,Assumption Island,Assumption Island,Seychelles,46.5067,-9.7422,6094,0.0,0.0,Wusu,Taiyuan,China,112.628428,37.746897,3273,114489.0,0.0,Air China,China,5,2,0.0
5,6083,3273,4166,2030-01-20 00:00:00,Macau Ferry Pier,Macau,Macau,113.558911,22.197075,6083,0.0,0.0,Wusu,Taiyuan,China,112.628428,37.746897,3273,114489.0,0.0,Air China,China,5,2,0.0
5,7349,3273,4196,2030-01-20 00:00:00,Magan,Yakutsk,Russia,129.3334,62.0626,7349,7655166.0,0.0,Wusu,Taiyuan,China,112.628428,37.746897,3273,114489.0,0.0,Air China,China,5,1,7655166.0
5,5385,3273,4210,2030-01-20 00:00:00,HLP HQ GT,Paetz,Germany,13.6667,52.2361,5385,4230432.0,1.0,Wusu,Taiyuan,China,112.628428,37.746897,3273,114489.0,0.0,Air China,China,5,2,4230432.0
5,4038,3273,4346,2030-01-20 00:00:00,Petersburg James A. Johnson,Petersburg,United States,-132.945278,56.801667,4038,0.0,0.0,Wusu,Taiyuan,China,112.628428,37.746897,3273,114489.0,0.0,Air China,China,5,2,0.0
5,3073,3273,4364,2030-01-20 00:00:00,Paro,Thimphu,Bhutan,89.424606,27.403192,3073,1196134.0,0.0,Wusu,Taiyuan,China,112.628428,37.746897,3273,114489.0,0.0,Air China,China,5,3,1196134.0
5,2953,3273,4504,2030-01-20 00:00:00,Kampong Chhnang,Kompong Chnang,Cambodia,104.563875,12.255236,2953,2381499.0,0.0,Wusu,Taiyuan,China,112.628428,37.746897,3273,114489.0,0.0,Air China,China,5,2,2381499.0
5,5538,3273,4712,2030-01-20 00:00:00,Branson LLC,Branson,United States,-93.200556,36.531994,5538,0.0,0.0,Wusu,Taiyuan,China,112.628428,37.746897,3273,114489.0,0.0,Air China,China,5,1,0.0
3,6472,3273,9773,2030-01-20 00:00:00,Mamitupo,Mamitupo,Panama,-77.984167,9.186667,6472,0.0,0.0,Wusu,Taiyuan,China,112.628428,37.746897,3273,114489.0,0.0,Southwest Airlines,United States,3,1,0.0
3,5214,3273,10075,2030-01-20 00:00:00,Yam Island Airport,Yam Island,Australia,142.776,-9.90111,5214,0.0,0.0,Wusu,Taiyuan,China,112.628428,37.746897,3273,114489.0,0.0,Southwest Airlines,United States,3,1,0.0
5,575,3298,3617,2030-01-20 00:00:00,Mount Pleasant,Mount Pleasant,Falkland Islands,-58.447222,-51.822777,575,0.0,0.0,Longdongbao,Guiyang,China,106.800703,26.538522,3298,114489.0,0.0,Air China,China,5,2,0.0
3,3786,3298,9529,2030-01-20 00:00:00,Robins Afb,Macon,United States,-83.59185,32.640144,3786,0.0,0.0,Longdongbao,Guiyang,China,106.800703,26.538522,3298,114489.0,0.0,Southwest Airlines,United States,3,3,0.0
4,2917,3298,2376,2030-01-20 00:00:00,Aurangabad,Aurangabad,India,75.398114,19.862728,2917,33550272.0,0.0,Longdongbao,Guiyang,China,106.800703,26.538522,3298,114489.0,0.0,China Eastern Airlines,China,4,3,33550272.0
4,337,3298,2634,2030-01-20 00:00:00,Erfurt,Erfurt,Germany,10.958106,50.979811,337,6742187.0,1.0,Longdongbao,Guiyang,China,106.800703,26.538522,3298,114489.0,0.0,China Eastern Airlines,China,4,1,6742187.0
4,2996,3298,2721,2030-01-20 00:00:00,Zia Intl,Dhaka,Bangladesh,90.397781,23.843333,2996,3399623.0,0.0,Longdongbao,Guiyang,China,106.800703,26.538522,3298,114489.0,0.0,China Eastern Airlines,China,4,2,3399623.0
4,3155,3298,2763,2030-01-20 00:00:00,Jalaluddin,Gorontalo,Indonesia,122.849858,0.637119,3155,5223062.0,0.0,Longdongbao,Guiyang,China,106.800703,26.538522,3298,114489.0,0.0,China Eastern Airlines,China,4,3,5223062.0
4,2223,3298,2987,2030-01-20 00:00:00,Hualien,Hualien,Taiwan,121.616906,24.023725,2223,0.0,0.0,Longdongbao,Guiyang,China,106.800703,26.538522,3298,114489.0,0.0,China Eastern Airlines,China,4,1,0.0
4,3268,3298,3023,2030-01-20 00:00:00,Wagga Wagga,Wagga Wagga,Australia,147.466389,-35.165278,3268,196724.0,0.0,Longdongbao,Guiyang,China,106.800703,26.538522,3298,114489.0,0.0,China Eastern Airlines,China,4,3,196724.0
5,3268,3298,4459,2030-01-20 00:00:00,Wagga Wagga,Wagga Wagga,Australia,147.466389,-35.165278,3268,1546104.0,0.0,Longdongbao,Guiyang,China,106.800703,26.538522,3298,114489.0,0.0,Air China,China,5,2,1546104.0
4,3222,3298,3234,2030-01-20 00:00:00,Seletar,Singapore,Singapore,103.867653,1.41695,3222,1377615.0,0.0,Longdongbao,Guiyang,China,106.800703,26.538522,3298,114489.0,0.0,China Eastern Airlines,China,4,2,1377615.0
4,2220,3298,3366,2030-01-20 00:00:00,Sungshan,Taipei,Taiwan,121.5525,25.069722,2220,0.0,0.0,Longdongbao,Guiyang,China,106.800703,26.538522,3298,114489.0,0.0,China Eastern Airlines,China,4,2,0.0
4,4267,3298,2453,2030-01-20 00:00:00,Yuzhny,Ivanovo,Russia,40.940833,56.939444,4267,8762605.0,0.0,Longdongbao,Guiyang,China,106.800703,26.538522,3298,114489.0,0.0,China Eastern Airlines,China,4,1,8762605.0
4,7875,3298,2591,2030-01-20 00:00:00,Delft Central,Delft,Netherlands,4.356667,52.006667,7875,2363195.0,1.0,Longdongbao,Guiyang,China,106.800703,26.538522,3298,114489.0,0.0,China Eastern Airlines,China,4,3,2363195.0
3,7875,3298,9668,2030-01-20 00:00:00,Delft Central,Delft,Netherlands,4.356667,52.006667,7875,4424378.0,1.0,Longdongbao,Guiyang,China,106.800703,26.538522,3298,114489.0,0.0,Southwest Airlines,United States,3,1,4424378.0
4,4011,3298,2654,2030-01-20 00:00:00,Ambouli International Airport,Djibouti,Djibouti,43.1594,11.5472,4011,1712991.0,0.0,Longdongbao,Guiyang,China,106.800703,26.538522,3298,114489.0,0.0,China Eastern Airlines,China,4,2,1712991.0
5,4011,3298,4041,2030-01-20 00:00:00,Ambouli International Airport,Djibouti,Djibouti,43.1594,11.5472,4011,568747.0,0.0,Longdongbao,Guiyang,China,106.800703,26.538522,3298,114489.0,0.0,Air China,China,5,3,568747.0
4,3976,3298,2775,2030-01-20 00:00:00,Telluride,Telluride,United States,-107.90848,37.953759,3976,0.0,0.0,Longdongbao,Guiyang,China,106.800703,26.538522,3298,114489.0,0.0,China Eastern Airlines,China,4,1,0.0
4,4188,3298,2811,2030-01-20 00:00:00,Chumphon,Chumphon,Thailand,99.361706,10.7112,4188,2531617.0,0.0,Longdongbao,Guiyang,China,106.800703,26.538522,3298,114489.0,0.0,China Eastern Airlines,China,4,2,2531617.0
3,4188,3298,9869,2030-01-20 00:00:00,Chumphon,Chumphon,Thailand,99.361706,10.7112,4188,2041673.0,0.0,Longdongbao,Guiyang,China,106.800703,26.538522,3298,114489.0,0.0,Southwest Airlines,United States,3,2,2041673.0
4,2153,3298,2815,2030-01-20 00:00:00,Shahbaz Ab,Jacobsbad,Pakistan,68.449711,28.284167,2153,3734427.0,0.0,Longdongbao,Guiyang,China,106.800703,26.538522,3298,114489.0,0.0,China Eastern Airlines,China,4,3,3734427.0
4,3043,3298,2854,2030-01-20 00:00:00,Janakpur,Janakpur,Nepal,85.922394,26.708806,3043,1047905.0,0.0,Longdongbao,Guiyang,China,106.800703,26.538522,3298,114489.0,0.0,China Eastern Airlines,China,4,3,1047905.0
4,3925,3298,2902,2030-01-20 00:00:00,East 34th Street Heliport,New York,United States,-73.971944,40.7425,3925,0.0,0.0,Longdongbao,Guiyang,China,106.800703,26.538522,3298,114489.0,0.0,China Eastern Airlines,China,4,2,0.0
4,3988,3298,2906,2030-01-20 00:00:00,Levuka Airfield,Levuka,Fiji,178.83333,-17.68333,3988,2817116.0,0.0,Longdongbao,Guiyang,China,106.800703,26.538522,3298,114489.0,0.0,China Eastern Airlines,China,4,1,2817116.0
3,3988,3298,10025,2030-01-20 00:00:00,Levuka Airfield,Levuka,Fiji,178.83333,-17.68333,3988,1682313.0,0.0,Longdongbao,Guiyang,China,106.800703,26.538522,3298,114489.0,0.0,Southwest Airlines,United States,3,3,1682313.0
4,3039,3298,2921,2030-01-20 00:00:00,Wattay Intl,Vientiane,Laos,102.563256,17.988322,3039,1266110.0,0.0,Longdongbao,Guiyang,China,106.800703,26.538522,3298,114489.0,0.0,China Eastern Airlines,China,4,3,1266110.0
4,4034,3298,3215,2030-01-20 00:00:00,Oudomxay,Muang Xay,Laos,101.994,20.6827,4034,15621.0,0.0,Longdongbao,Guiyang,China,106.800703,26.538522,3298,114489.0,0.0,China Eastern Airlines,China,4,2,15621.0
4,3922,3298,3246,2030-01-20 00:00:00,Domododevo,Moscow,Russia,37.906111,55.408611,3922,8715637.0,0.0,Longdongbao,Guiyang,China,106.800703,26.538522,3298,114489.0,0.0,China Eastern Airlines,China,4,2,8715637.0
4,3999,3298,3341,2030-01-20 00:00:00,Vancouver Coal Harbour,Vancouver,Canada,-123.115833,49.289722,3999,0.0,0.0,Longdongbao,Guiyang,China,106.800703,26.538522,3298,114489.0,0.0,China Eastern Airlines,China,4,2,0.0
5,3999,3298,4719,2030-01-20 00:00:00,Vancouver Coal Harbour,Vancouver,Canada,-123.115833,49.289722,3999,0.0,0.0,Longdongbao,Guiyang,China,106.800703,26.538522,3298,114489.0,0.0,Air China,China,5,1,0.0
3,3999,3298,10510,2030-01-20 00:00:00,Vancouver Coal Harbour,Vancouver,Canada,-123.115833,49.289722,3999,0.0,0.0,Longdongbao,Guiyang,China,106.800703,26.538522,3298,114489.0,0.0,Southwest Airlines,United States,3,3,0.0
3,5248,3298,9671,2030-01-20 00:00:00,Muren Airport,Muren,Mongolia,100.099,49.6633,5248,2351518.0,0.0,Longdongbao,Guiyang,China,106.800703,26.538522,3298,114489.0,0.0,Southwest Airlines,United States,3,2,2351518.0
3,3946,3298,9687,2030-01-20 00:00:00,EuroAirport Basel-Mulhouse-Freiburg,Basel,Switzerland,7.529167,47.59,3946,8785062.0,0.0,Longdongbao,Guiyang,China,106.800703,26.538522,3298,114489.0,0.0,Southwest Airlines,United States,3,2,8785062.0
3,5214,3298,10080,2030-01-20 00:00:00,Yam Island Airport,Yam Island,Australia,142.776,-9.90111,5214,0.0,0.0,Longdongbao,Guiyang,China,106.800703,26.538522,3298,114489.0,0.0,Southwest Airlines,United States,3,2,0.0
5,575,3289,3618,2030-01-20 00:00:00,Mount Pleasant,Mount Pleasant,Falkland Islands,-58.447222,-51.822777,575,0.0,0.0,Changle,Fuzhou,China,119.663272,25.935064,3289,114489.0,0.0,Air China,China,5,1,0.0
4,2996,3289,2723,2030-01-20 00:00:00,Zia Intl,Dhaka,Bangladesh,90.397781,23.843333,2996,1945114.0,0.0,Changle,Fuzhou,China,119.663272,25.935064,3289,114489.0,0.0,China Eastern Airlines,China,4,1,1945114.0
3,2996,3289,9779,2030-01-20 00:00:00,Zia Intl,Dhaka,Bangladesh,90.397781,23.843333,2996,3812854.0,0.0,Changle,Fuzhou,China,119.663272,25.935064,3289,114489.0,0.0,Southwest Airlines,United States,3,3,3812854.0
4,3155,3289,2766,2030-01-20 00:00:00,Jalaluddin,Gorontalo,Indonesia,122.849858,0.637119,3155,5711452.0,0.0,Changle,Fuzhou,China,119.663272,25.935064,3289,114489.0,0.0,China Eastern Airlines,China,4,2,5711452.0
4,3884,3289,2826,2030-01-20 00:00:00,Ellinikon International Airport,Athens,Greece,23.4346,37.5354,3884,0.0,0.0,Changle,Fuzhou,China,119.663272,25.935064,3289,114489.0,0.0,China Eastern Airlines,China,4,1,0.0
4,2223,3289,2989,2030-01-20 00:00:00,Hualien,Hualien,Taiwan,121.616906,24.023725,2223,0.0,0.0,Changle,Fuzhou,China,119.663272,25.935064,3289,114489.0,0.0,China Eastern Airlines,China,4,3,0.0
4,3268,3289,3047,2030-01-20 00:00:00,Wagga Wagga,Wagga Wagga,Australia,147.466389,-35.165278,3268,2092506.0,0.0,Changle,Fuzhou,China,119.663272,25.935064,3289,114489.0,0.0,China Eastern Airlines,China,4,1,2092506.0
5,3268,3289,4467,2030-01-20 00:00:00,Wagga Wagga,Wagga Wagga,Australia,147.466389,-35.165278,3268,1861144.0,0.0,Changle,Fuzhou,China,119.663272,25.935064,3289,114489.0,0.0,Air China,China,5,2,1861144.0
3,3268,3289,10200,2030-01-20 00:00:00,Wagga Wagga,Wagga Wagga,Australia,147.466389,-35.165278,3268,693841.0,0.0,Changle,Fuzhou,China,119.663272,25.935064,3289,114489.0,0.0,Southwest Airlines,United States,3,3,693841.0
4,2311,3289,3147,2030-01-20 00:00:00,Jinhae,Chinhae,South Korea,128.695792,35.141175,2311,0.0,0.0,Changle,Fuzhou,China,119.663272,25.935064,3289,114489.0,0.0,China Eastern Airlines,China,4,1,0.0
4,2220,3289,3368,2030-01-20 00:00:00,Sungshan,Taipei,Taiwan,121.5525,25.069722,2220,0.0,0.0,Changle,Fuzhou,China,119.663272,25.935064,3289,114489.0,0.0,China Eastern Airlines,China,4,3,0.0
5,4267,3289,3815,2030-01-20 00:00:00,Yuzhny,Ivanovo,Russia,40.940833,56.939444,4267,8060322.0,0.0,Changle,Fuzhou,China,119.663272,25.935064,3289,114489.0,0.0,Air China,China,5,2,8060322.0
3,4315,3289,9588,2030-01-20 00:00:00,Cuyo Airport,Cuyo,Philippines,121.069,10.8581,4315,0.0,0.0,Changle,Fuzhou,China,119.663272,25.935064,3289,114489.0,0.0,Southwest Airlines,United States,3,1,0.0
4,4011,3289,2656,2030-01-20 00:00:00,Ambouli International Airport,Djibouti,Djibouti,43.1594,11.5472,4011,2534361.0,0.0,Changle,Fuzhou,China,119.663272,25.935064,3289,114489.0,0.0,China Eastern Airlines,China,4,3,2534361.0
5,4011,3289,4043,2030-01-20 00:00:00,Ambouli International Airport,Djibouti,Djibouti,43.1594,11.5472,4011,2395092.0,0.0,Changle,Fuzhou,China,119.663272,25.935064,3289,114489.0,0.0,Air China,China,5,1,2395092.0
3,3095,3289,9797,2030-01-20 00:00:00,Cha Ian,Nakhon Si Thammarat,Thailand,99.955625,8.471147,3095,2888225.0,0.0,Changle,Fuzhou,China,119.663272,25.935064,3289,114489.0,0.0,Southwest Airlines,United States,3,3,2888225.0
4,3976,3289,2776,2030-01-20 00:00:00,Telluride,Telluride,United States,-107.90848,37.953759,3976,0.0,0.0,Changle,Fuzhou,China,119.663272,25.935064,3289,114489.0,0.0,China Eastern Airlines,China,4,1,0.0
4,3925,3289,2903,2030-01-20 00:00:00,East 34th Street Heliport,New York,United States,-73.971944,40.7425,3925,0.0,0.0,Changle,Fuzhou,China,119.663272,25.935064,3289,114489.0,0.0,China Eastern Airlines,China,4,1,0.0
5,3925,3289,4339,2030-01-20 00:00:00,East 34th Street Heliport,New York,United States,-73.971944,40.7425,3925,0.0,0.0,Changle,Fuzhou,China,119.663272,25.935064,3289,114489.0,0.0,Air China,China,5,3,0.0
4,3039,3289,2923,2030-01-20 00:00:00,Wattay Intl,Vientiane,Laos,102.563256,17.988322,3039,778090.0,0.0,Changle,Fuzhou,China,119.663272,25.935064,3289,114489.0,0.0,China Eastern Airlines,China,4,2,778090.0
5,3039,3289,4359,2030-01-20 00:00:00,Wattay Intl,Vientiane,Laos,102.563256,17.988322,3039,96811.0,0.0,Changle,Fuzhou,China,119.663272,25.935064,3289,114489.0,0.0,Air China,China,5,1,96811.0
4,4034,3289,3219,2030-01-20 00:00:00,Oudomxay,Muang Xay,Laos,101.994,20.6827,4034,2767827.0,0.0,Changle,Fuzhou,China,119.663272,25.935064,3289,114489.0,0.0,China Eastern Airlines,China,4,3,2767827.0
5,4034,3289,4565,2030-01-20 00:00:00,Oudomxay,Muang Xay,Laos,101.994,20.6827,4034,2232338.0,0.0,Changle,Fuzhou,China,119.663272,25.935064,3289,114489.0,0.0,Air China,China,5,2,2232338.0
5,3922,3289,4628,2030-01-20 00:00:00,Domododevo,Moscow,Russia,37.906111,55.408611,3922,6619389.0,0.0,Changle,Fuzhou,China,119.663272,25.935064,3289,114489.0,0.0,Air China,China,5,2,6619389.0
4,3999,3289,3345,2030-01-20 00:00:00,Vancouver Coal Harbour,Vancouver,Canada,-123.115833,49.289722,3999,0.0,0.0,Changle,Fuzhou,China,119.663272,25.935064,3289,114489.0,0.0,China Eastern Airlines,China,4,2,0.0
5,3999,3289,4723,2030-01-20 00:00:00,Vancouver Coal Harbour,Vancouver,Canada,-123.115833,49.289722,3999,0.0,0.0,Changle,Fuzhou,China,119.663272,25.935064,3289,114489.0,0.0,Air China,China,5,2,0.0
5,575,3286,3621,2030-01-20 00:00:00,Mount Pleasant,Mount Pleasant,Falkland Islands,-58.447222,-51.822777,575,0.0,0.0,Wujiaba,Kunming,China,102.743536,24.992364,3286,114489.0,0.0,Air China,China,5,3,0.0
5,3786,3286,3648,2030-01-20 00:00:00,Robins Afb,Macon,United States,-83.59185,32.640144,3786,0.0,0.0,Wujiaba,Kunming,China,102.743536,24.992364,3286,114489.0,0.0,Air China,China,5,3,0.0
5,2996,3286,4125,2030-01-20 00:00:00,Zia Intl,Dhaka,Bangladesh,90.397781,23.843333,2996,3459636.0,0.0,Wujiaba,Kunming,China,102.743536,24.992364,3286,114489.0,0.0,Air China,China,5,2,3459636.0
5,3210,3286,4279,2030-01-20 00:00:00,Sultan Ismail,Johor Bahru,Malaysia,103.669619,1.641308,3210,2918173.0,0.0,Wujiaba,Kunming,China,102.743536,24.992364,3286,114489.0,0.0,Air China,China,5,2,2918173.0
4,2223,3286,2994,2030-01-20 00:00:00,Hualien,Hualien,Taiwan,121.616906,24.023725,2223,0.0,0.0,Wujiaba,Kunming,China,102.743536,24.992364,3286,114489.0,0.0,China Eastern Airlines,China,4,3,0.0
4,3268,3286,3132,2030-01-20 00:00:00,Wagga Wagga,Wagga Wagga,Australia,147.466389,-35.165278,3268,2505269.0,0.0,Wujiaba,Kunming,China,102.743536,24.992364,3286,114489.0,0.0,China Eastern Airlines,China,4,1,2505269.0
5,3268,3286,4497,2030-01-20 00:00:00,Wagga Wagga,Wagga Wagga,Australia,147.466389,-35.165278,3268,966447.0,0.0,Wujiaba,Kunming,China,102.743536,24.992364,3286,114489.0,0.0,Air China,China,5,2,966447.0
5,3222,3286,4592,2030-01-20 00:00:00,Seletar,Singapore,Singapore,103.867653,1.41695,3222,1758175.0,0.0,Wujiaba,Kunming,China,102.743536,24.992364,3286,114489.0,0.0,Air China,China,5,2,1758175.0
4,3182,3286,2428,2030-01-20 00:00:00,Pinang Kampai,Dumai,Indonesia,101.433558,1.609194,3182,4085112.0,0.0,Wujiaba,Kunming,China,102.743536,24.992364,3286,114489.0,0.0,China Eastern Airlines,China,4,2,4085112.0
5,3182,3286,3768,2030-01-20 00:00:00,Pinang Kampai,Dumai,Indonesia,101.433558,1.609194,3182,3066342.0,0.0,Wujiaba,Kunming,China,102.743536,24.992364,3286,114489.0,0.0,Air China,China,5,2,3066342.0
5,4011,3286,4051,2030-01-20 00:00:00,Ambouli International Airport,Djibouti,Djibouti,43.1594,11.5472,4011,59778.0,0.0,Wujiaba,Kunming,China,102.743536,24.992364,3286,114489.0,0.0,Air China,China,5,2,59778.0
4,3039,3286,2933,2030-01-20 00:00:00,Wattay Intl,Vientiane,Laos,102.563256,17.988322,3039,2720834.0,0.0,Wujiaba,Kunming,China,102.743536,24.992364,3286,114489.0,0.0,China Eastern Airlines,China,4,2,2720834.0
5,3039,3286,4361,2030-01-20 00:00:00,Wattay Intl,Vientiane,Laos,102.563256,17.988322,3039,955763.0,0.0,Wujiaba,Kunming,China,102.743536,24.992364,3286,114489.0,0.0,Air China,China,5,2,955763.0
5,2335,3286,4366,2030-01-20 00:00:00,Yonaguni,Yonaguni Jima,Japan,122.977778,24.466944,2335,0.0,0.0,Wujiaba,Kunming,China,102.743536,24.992364,3286,114489.0,0.0,Air China,China,5,2,0.0
4,4846,3286,3001,2030-01-20 00:00:00,Apartadó Airport,Apartadó,Colombia,-77.2,7.033,4846,5759410.0,0.0,Wujiaba,Kunming,China,102.743536,24.992364,3286,114489.0,0.0,China Eastern Airlines,China,4,2,5759410.0
5,4034,3286,4586,2030-01-20 00:00:00,Oudomxay,Muang Xay,Laos,101.994,20.6827,4034,2606804.0,0.0,Wujiaba,Kunming,China,102.743536,24.992364,3286,114489.0,0.0,Air China,China,5,3,2606804.0
4,3922,3286,3253,2030-01-20 00:00:00,Domododevo,Moscow,Russia,37.906111,55.408611,3922,7978250.0,0.0,Wujiaba,Kunming,China,102.743536,24.992364,3286,114489.0,0.0,China Eastern Airlines,China,4,1,7978250.0
5,3922,3286,4636,2030-01-20 00:00:00,Domododevo,Moscow,Russia,37.906111,55.408611,3922,7280965.0,0.0,Wujiaba,Kunming,China,102.743536,24.992364,3286,114489.0,0.0,Air China,China,5,3,7280965.0
4,3999,3286,3363,2030-01-20 00:00:00,Vancouver Coal Harbour,Vancouver,Canada,-123.115833,49.289722,3999,0.0,0.0,Wujiaba,Kunming,China,102.743536,24.992364,3286,114489.0,0.0,China Eastern Airlines,China,4,1,0.0
5,3999,3286,4731,2030-01-20 00:00:00,Vancouver Coal Harbour,Vancouver,Canada,-123.115833,49.289722,3999,0.0,0.0,Wujiaba,Kunming,China,102.743536,24.992364,3286,114489.0,0.0,Air China,China,5,2,0.0
4,7442,3286,3593,2030-01-20 00:00:00,Wickenburg Municipal Airport,Wickenburg,United States,-112.7990036,33.96889877,7442,0.0,0.0,Wujiaba,Kunming,China,102.743536,24.992364,3286,114489.0,0.0,China Eastern Airlines,China,4,1,0.0
3,5214,3286,10107,2030-01-20 00:00:00,Yam Island Airport,Yam Island,Australia,142.776,-9.90111,5214,0.0,0.0,Wujiaba,Kunming,China,102.743536,24.992364,3286,114489.0,0.0,Southwest Airlines,United States,3,2,0.0
7,3583,3926,5175,2030-01-20 00:00:00,Cincinnati Muni Lunken Fld,Cincinnati,United States,-84.418611,39.103333,3583,0.0,0.0,Lijiang Airport,Lijiang,China,100.23333,26.883333,3926,114489.0,0.0,US Airways,United States,7,1,0.0
2,3591,3926,16139,2030-01-20 00:00:00,Imperial Co,Imperial,United States,-115.578744,32.834219,3591,0.0,0.0,Lijiang Airport,Lijiang,China,100.23333,26.883333,3926,114489.0,0.0,easyJet,United Kingdom,2,1,0.0
2,3750,3926,16207,2030-01-20 00:00:00,Tyler Pounds Rgnl,Tyler,United States,-95.402386,32.354139,3750,0.0,0.0,Lijiang Airport,Lijiang,China,100.23333,26.883333,3926,114489.0,0.0,easyJet,United Kingdom,2,3,0.0
8,3387,3926,12108,2030-01-20 00:00:00,Anniston Metro,Anniston,United States,-85.858111,33.588167,3387,0.0,0.0,Lijiang Airport,Lijiang,China,100.23333,26.883333,3926,114489.0,0.0,Delta Air Lines,United States,8,1,0.0
9,3777,3926,285,2030-01-20 00:00:00,Key West Intl,Key West,United States,-81.759556,24.556111,3777,0.0,0.0,Lijiang Airport,Lijiang,China,100.23333,26.883333,3926,114489.0,0.0,United Airlines,United States,9,2,0.0
6,3777,3926,14287,2030-01-20 00:00:00,Key West Intl,Key West,United States,-81.759556,24.556111,3777,0.0,0.0,Lijiang Airport,Lijiang,China,100.23333,26.883333,3926,114489.0,0.0,China Southern Airlines,China,6,1,0.0
9,3421,3926,445,2030-01-20 00:00:00,Campbell Aaf,Hopkinsville,United States,-87.496183,36.668567,3421,0.0,0.0,Lijiang Airport,Lijiang,China,100.23333,26.883333,3926,114489.0,0.0,United Airlines,United States,9,2,0.0
6,3421,3926,14444,2030-01-20 00:00:00,Campbell Aaf,Hopkinsville,United States,-87.496183,36.668567,3421,0.0,0.0,Lijiang Airport,Lijiang,China,100.23333,26.883333,3926,114489.0,0.0,China Southern Airlines,China,6,1,0.0
9,3571,3926,574,2030-01-20 00:00:00,Tyndall Afb,Panama City,United States,-85.575417,30.069567,3571,0.0,0.0,Lijiang Airport,Lijiang,China,100.23333,26.883333,3926,114489.0,0.0,United Airlines,United States,9,3,0.0
6,3571,3926,14566,2030-01-20 00:00:00,Tyndall Afb,Panama City,United States,-85.575417,30.069567,3571,0.0,0.0,Lijiang Airport,Lijiang,China,100.23333,26.883333,3926,114489.0,0.0,China Southern Airlines,China,6,1,0.0
7,3546,3926,5657,2030-01-20 00:00:00,Bob Hope,Burbank,United States,-118.358667,34.200667,3546,0.0,0.0,Lijiang Airport,Lijiang,China,100.23333,26.883333,3926,114489.0,0.0,US Airways,United States,7,1,0.0
8,3395,3926,12450,2030-01-20 00:00:00,Lafayette Rgnl,Lafayette,United States,-91.987611,30.205278,3395,0.0,0.0,Lijiang Airport,Lijiang,China,100.23333,26.883333,3926,114489.0,0.0,Delta Air Lines,United States,8,3,0.0
2,3467,3926,16451,2030-01-20 00:00:00,Grand Forks Afb,Red River,United States,-97.401194,47.961098,3467,0.0,0.0,Lijiang Airport,Lijiang,China,100.23333,26.883333,3926,114489.0,0.0,easyJet,United Kingdom,2,2,0.0
8,3615,3926,12758,2030-01-20 00:00:00,Durango La Plata Co,Durango,United States,-107.75377,37.151516,3615,0.0,0.0,Lijiang Airport,Lijiang,China,100.23333,26.883333,3926,114489.0,0.0,Delta Air Lines,United States,8,2,0.0
8,3451,3926,12881,2030-01-20 00:00:00,Page Fld,Fort Myers,United States,-81.86325,26.586611,3451,0.0,0.0,Lijiang Airport,Lijiang,China,100.23333,26.883333,3926,114489.0,0.0,Delta Air Lines,United States,8,2,0.0
7,3598,3926,6158,2030-01-20 00:00:00,South Arkansas Rgnl At Goodwin Fld,El Dorado,United States,-92.813278,33.220972,3598,0.0,0.0,Lijiang Airport,Lijiang,China,100.23333,26.883333,3926,114489.0,0.0,US Airways,United States,7,1,0.0
8,3731,3926,13430,2030-01-20 00:00:00,Lubbock Preston Smith Intl,Lubbock,United States,-101.822778,33.663639,3731,0.0,0.0,Lijiang Airport,Lijiang,China,100.23333,26.883333,3926,114489.0,0.0,Delta Air Lines,United States,8,1,0.0
9,3653,3926,1791,2030-01-20 00:00:00,Denver Intl,Denver,United States,-104.673178,39.861656,3653,0.0,0.0,Lijiang Airport,Lijiang,China,100.23333,26.883333,3926,114489.0,0.0,United Airlines,United States,9,2,0.0
6,3653,3926,15552,2030-01-20 00:00:00,Denver Intl,Denver,United States,-104.673178,39.861656,3653,0.0,0.0,Lijiang Airport,Lijiang,China,100.23333,26.883333,3926,114489.0,0.0,China Southern Airlines,China,6,2,0.0
2,3648,3926,16700,2030-01-20 00:00:00,Key West Nas,Key West,United States,-81.688889,24.575834,3648,0.0,0.0,Lijiang Airport,Lijiang,China,100.23333,26.883333,3926,114489.0,0.0,easyJet,United Kingdom,2,2,0.0
4,3786,3277,2375,2030-01-20 00:00:00,Robins Afb,Macon,United States,-83.59185,32.640144,3786,0.0,0.0,Wuxu,Nanning,China,108.172442,22.608267,3277,114489.0,0.0,China Eastern Airlines,China,4,1,0.0
4,3268,3277,3112,2030-01-20 00:00:00,Wagga Wagga,Wagga Wagga,Australia,147.466389,-35.165278,3268,807082.0,0.0,Wuxu,Nanning,China,108.172442,22.608267,3277,114489.0,0.0,China Eastern Airlines,China,4,3,807082.0
5,3268,3277,4490,2030-01-20 00:00:00,Wagga Wagga,Wagga Wagga,Australia,147.466389,-35.165278,3268,1474334.0,0.0,Wuxu,Nanning,China,108.172442,22.608267,3277,114489.0,0.0,Air China,China,5,3,1474334.0
4,3222,3277,3236,2030-01-20 00:00:00,Seletar,Singapore,Singapore,103.867653,1.41695,3222,2908753.0,0.0,Wuxu,Nanning,China,108.172442,22.608267,3277,114489.0,0.0,China Eastern Airlines,China,4,1,2908753.0
5,2220,3277,4745,2030-01-20 00:00:00,Sungshan,Taipei,Taiwan,121.5525,25.069722,2220,0.0,0.0,Wuxu,Nanning,China,108.172442,22.608267,3277,114489.0,0.0,Air China,China,5,1,0.0
4,4267,3277,2457,2030-01-20 00:00:00,Yuzhny,Ivanovo,Russia,40.940833,56.939444,4267,8736026.0,0.0,Wuxu,Nanning,China,108.172442,22.608267,3277,114489.0,0.0,China Eastern Airlines,China,4,1,8736026.0
4,4011,3277,2659,2030-01-20 00:00:00,Ambouli International Airport,Djibouti,Djibouti,43.1594,11.5472,4011,2680325.0,0.0,Wuxu,Nanning,China,108.172442,22.608267,3277,114489.0,0.0,China Eastern Airlines,China,4,3,2680325.0
5,4011,3277,4049,2030-01-20 00:00:00,Ambouli International Airport,Djibouti,Djibouti,43.1594,11.5472,4011,2251180.0,0.0,Wuxu,Nanning,China,108.172442,22.608267,3277,114489.0,0.0,Air China,China,5,3,2251180.0
5,3095,3277,4128,2030-01-20 00:00:00,Cha Ian,Nakhon Si Thammarat,Thailand,99.955625,8.471147,3095,2596038.0,0.0,Wuxu,Nanning,China,108.172442,22.608267,3277,114489.0,0.0,Air China,China,5,3,2596038.0
4,4846,3277,2999,2030-01-20 00:00:00,Apartadó Airport,Apartadó,Colombia,-77.2,7.033,4846,6414227.0,0.0,Wuxu,Nanning,China,108.172442,22.608267,3277,114489.0,0.0,China Eastern Airlines,China,4,1,6414227.0
4,4034,3277,3226,2030-01-20 00:00:00,Oudomxay,Muang Xay,Laos,101.994,20.6827,4034,2437224.0,0.0,Wuxu,Nanning,China,108.172442,22.608267,3277,114489.0,0.0,China Eastern Airlines,China,4,3,2437224.0
4,3922,3277,3249,2030-01-20 00:00:00,Domododevo,Moscow,Russia,37.906111,55.408611,3922,8157134.0,0.0,Wuxu,Nanning,China,108.172442,22.608267,3277,114489.0,0.0,China Eastern Airlines,China,4,3,8157134.0
5,3922,3277,4633,2030-01-20 00:00:00,Domododevo,Moscow,Russia,37.906111,55.408611,3922,6951633.0,0.0,Wuxu,Nanning,China,108.172442,22.608267,3277,114489.0,0.0,Air China,China,5,1,6951633.0
4,3999,3277,3357,2030-01-20 00:00:00,Vancouver Coal Harbour,Vancouver,Canada,-123.115833,49.289722,3999,0.0,0.0,Wuxu,Nanning,China,108.172442,22.608267,3277,114489.0,0.0,China Eastern Airlines,China,4,3,0.0
4,7672,3277,3565,2030-01-20 00:00:00,Cococay,Ragged Island,Bahamas,-75.693333,22.148056,7672,0.0,0.0,Wuxu,Nanning,China,108.172442,22.608267,3277,114489.0,0.0,China Eastern Airlines,China,4,1,0.0
5,7590,3277,3632,2030-01-20 00:00:00,Volosovo,Volosovo,Russia,37.4517,55.0683,7590,8388046.0,0.0,Wuxu,Nanning,China,108.172442,22.608267,3277,114489.0,0.0,Air China,China,5,3,8388046.0
5,3176,3277,3639,2030-01-20 00:00:00,Lahad Datu,Lahad Datu,Malaysia,118.324036,5.032247,3176,3593728.0,0.0,Wuxu,Nanning,China,108.172442,22.608267,3277,114489.0,0.0,Air China,China,5,3,3593728.0
5,2309,3277,3839,2030-01-20 00:00:00,Macomb Municipal Airport,Macomb,United States,-90.6523889,40.5200833,2309,0.0,0.0,Wuxu,Nanning,China,108.172442,22.608267,3277,114489.0,0.0,Air China,China,5,3,0.0
5,3830,3277,3990,2030-01-20 00:00:00,Nakhon Si Thammarat,Nakhon Si Thammarat,Thailand,99.944725,8.539617,3830,2676991.0,0.0,Wuxu,Nanning,China,108.172442,22.608267,3277,114489.0,0.0,Air China,China,5,3,2676991.0
5,5538,3277,4714,2030-01-20 00:00:00,Branson LLC,Branson,United States,-93.200556,36.531994,5538,0.0,0.0,Wuxu,Nanning,China,108.172442,22.608267,3277,114489.0,0.0,Air China,China,5,2,0.0
3,5214,3277,10101,2030-01-20 00:00:00,Yam Island Airport,Yam Island,Australia,142.776,-9.90111,5214,0.0,0.0,Wuxu,Nanning,China,108.172442,22.608267,3277,114489.0,0.0,Southwest Airlines,United States,3,3,0.0
5,3786,3278,3641,2030-01-20 00:00:00,Robins Afb,Macon,United States,-83.59185,32.640144,3786,0.0,0.0,Baoan Intl,Shenzhen,China,113.810664,22.639258,3278,114489.0,0.0,Air China,China,5,3,0.0
5,2996,3278,4119,2030-01-20 00:00:00,Zia Intl,Dhaka,Bangladesh,90.397781,23.843333,2996,3411347.0,0.0,Baoan Intl,Shenzhen,China,113.810664,22.639258,3278,114489.0,0.0,Air China,China,5,1,3411347.0
5,3155,3278,4168,2030-01-20 00:00:00,Jalaluddin,Gorontalo,Indonesia,122.849858,0.637119,3155,5794296.0,0.0,Baoan Intl,Shenzhen,China,113.810664,22.639258,3278,114489.0,0.0,Air China,China,5,3,5794296.0
5,2209,3278,4214,2030-01-20 00:00:00,Lyudao,Green Island,Taiwan,121.466481,22.673853,2209,0.0,0.0,Baoan Intl,Shenzhen,China,113.810664,22.639258,3278,114489.0,0.0,Air China,China,5,2,0.0
4,3268,3278,3013,2030-01-20 00:00:00,Wagga Wagga,Wagga Wagga,Australia,147.466389,-35.165278,3268,388275.0,0.0,Baoan Intl,Shenzhen,China,113.810664,22.639258,3278,114489.0,0.0,China Eastern Airlines,China,4,3,388275.0
5,3268,3278,4454,2030-01-20 00:00:00,Wagga Wagga,Wagga Wagga,Australia,147.466389,-35.165278,3268,485699.0,0.0,Baoan Intl,Shenzhen,China,113.810664,22.639258,3278,114489.0,0.0,Air China,China,5,2,485699.0
5,2220,3278,4734,2030-01-20 00:00:00,Sungshan,Taipei,Taiwan,121.5525,25.069722,2220,0.0,0.0,Baoan Intl,Shenzhen,China,113.810664,22.639258,3278,114489.0,0.0,Air China,China,5,2,0.0
5,4267,3278,3810,2030-01-20 00:00:00,Yuzhny,Ivanovo,Russia,40.940833,56.939444,4267,8848276.0,0.0,Baoan Intl,Shenzhen,China,113.810664,22.639258,3278,114489.0,0.0,Air China,China,5,1,8848276.0
4,4011,3278,2653,2030-01-20 00:00:00,Ambouli International Airport,Djibouti,Djibouti,43.1594,11.5472,4011,164998.0,0.0,Baoan Intl,Shenzhen,China,113.810664,22.639258,3278,114489.0,0.0,China Eastern Airlines,China,4,3,164998.0
5,4011,3278,4038,2030-01-20 00:00:00,Ambouli International Airport,Djibouti,Djibouti,43.1594,11.5472,4011,376896.0,0.0,Baoan Intl,Shenzhen,China,113.810664,22.639258,3278,114489.0,0.0,Air China,China,5,2,376896.0
5,3976,3278,4180,2030-01-20 00:00:00,Telluride,Telluride,United States,-107.90848,37.953759,3976,0.0,0.0,Baoan Intl,Shenzhen,China,113.810664,22.639258,3278,114489.0,0.0,Air China,China,5,3,0.0
3,3976,3278,9834,2030-01-20 00:00:00,Telluride,Telluride,United States,-107.90848,37.953759,3976,0.0,0.0,Baoan Intl,Shenzhen,China,113.810664,22.639258,3278,114489.0,0.0,Southwest Airlines,United States,3,2,0.0
4,3039,3278,2919,2030-01-20 00:00:00,Wattay Intl,Vientiane,Laos,102.563256,17.988322,3039,878944.0,0.0,Baoan Intl,Shenzhen,China,113.810664,22.639258,3278,114489.0,0.0,China Eastern Airlines,China,4,3,878944.0
4,4034,3278,3214,2030-01-20 00:00:00,Oudomxay,Muang Xay,Laos,101.994,20.6827,4034,2283965.0,0.0,Baoan Intl,Shenzhen,China,113.810664,22.639258,3278,114489.0,0.0,China Eastern Airlines,China,4,3,2283965.0
5,4034,3278,4559,2030-01-20 00:00:00,Oudomxay,Muang Xay,Laos,101.994,20.6827,4034,1581314.0,0.0,Baoan Intl,Shenzhen,China,113.810664,22.639258,3278,114489.0,0.0,Air China,China,5,2,1581314.0
5,3922,3278,4624,2030-01-20 00:00:00,Domododevo,Moscow,Russia,37.906111,55.408611,3922,8493483.0,0.0,Baoan Intl,Shenzhen,China,113.810664,22.639258,3278,114489.0,0.0,Air China,China,5,3,8493483.0
4,3999,3278,3337,2030-01-20 00:00:00,Vancouver Coal Harbour,Vancouver,Canada,-123.115833,49.289722,3999,0.0,0.0,Baoan Intl,Shenzhen,China,113.810664,22.639258,3278,114489.0,0.0,China Eastern Airlines,China,4,3,0.0
5,7442,3278,5014,2030-01-20 00:00:00,Wickenburg Municipal Airport,Wickenburg,United States,-112.7990036,33.96889877,7442,0.0,0.0,Baoan Intl,Shenzhen,China,113.810664,22.639258,3278,114489.0,0.0,Air China,China,5,2,0.0
5,2309,3278,3833,2030-01-20 00:00:00,Macomb Municipal Airport,Macomb,United States,-90.6523889,40.5200833,2309,0.0,0.0,Baoan Intl,Shenzhen,China,113.810664,22.639258,3278,114489.0,0.0,Air China,China,5,1,0.0
5,3786,3274,3642,2030-01-20 00:00:00,Robins Afb,Macon,United States,-83.59185,32.640144,3786,0.0,0.0,Baiyun Intl,Guangzhou,China,113.298786,23.392436,3274,114489.0,0.0,Air China,China,5,2,0.0
5,3155,3274,4170,2030-01-20 00:00:00,Jalaluddin,Gorontalo,Indonesia,122.849858,0.637119,3155,4586850.0,0.0,Baiyun Intl,Guangzhou,China,113.298786,23.392436,3274,114489.0,0.0,Air China,China,5,2,4586850.0
3,3155,3274,9825,2030-01-20 00:00:00,Jalaluddin,Gorontalo,Indonesia,122.849858,0.637119,3155,3375469.0,0.0,Baiyun Intl,Guangzhou,China,113.298786,23.392436,3274,114489.0,0.0,Southwest Airlines,United States,3,2,3375469.0
4,3268,3274,3021,2030-01-20 00:00:00,Wagga Wagga,Wagga Wagga,Australia,147.466389,-35.165278,3268,189692.0,0.0,Baiyun Intl,Guangzhou,China,113.298786,23.392436,3274,114489.0,0.0,China Eastern Airlines,China,4,2,189692.0
5,3268,3274,4458,2030-01-20 00:00:00,Wagga Wagga,Wagga Wagga,Australia,147.466389,-35.165278,3268,2393225.0,0.0,Baiyun Intl,Guangzhou,China,113.298786,23.392436,3274,114489.0,0.0,Air China,China,5,3,2393225.0
5,2220,3274,4736,2030-01-20 00:00:00,Sungshan,Taipei,Taiwan,121.5525,25.069722,2220,0.0,0.0,Baiyun Intl,Guangzhou,China,113.298786,23.392436,3274,114489.0,0.0,Air China,China,5,1,0.0
5,4011,3274,4040,2030-01-20 00:00:00,Ambouli International Airport,Djibouti,Djibouti,43.1594,11.5472,4011,1993466.0,0.0,Baiyun Intl,Guangzhou,China,113.298786,23.392436,3274,114489.0,0.0,Air China,China,5,1,1993466.0
5,3976,3274,4181,2030-01-20 00:00:00,Telluride,Telluride,United States,-107.90848,37.953759,3976,0.0,0.0,Baiyun Intl,Guangzhou,China,113.298786,23.392436,3274,114489.0,0.0,Air China,China,5,3,0.0
5,3922,3274,4626,2030-01-20 00:00:00,Domododevo,Moscow,Russia,37.906111,55.408611,3922,6352151.0,0.0,Baiyun Intl,Guangzhou,China,113.298786,23.392436,3274,114489.0,0.0,Air China,China,5,1,6352151.0
4,3999,3274,3340,2030-01-20 00:00:00,Vancouver Coal Harbour,Vancouver,Canada,-123.115833,49.289722,3999,0.0,0.0,Baiyun Intl,Guangzhou,China,113.298786,23.392436,3274,114489.0,0.0,China Eastern Airlines,China,4,3,0.0
5,3999,3274,4718,2030-01-20 00:00:00,Vancouver Coal Harbour,Vancouver,Canada,-123.115833,49.289722,3999,0.0,0.0,Baiyun Intl,Guangzhou,China,113.298786,23.392436,3274,114489.0,0.0,Air China,China,5,2,0.0
5,7442,3274,5015,2030-01-20 00:00:00,Wickenburg Municipal Airport,Wickenburg,United States,-112.7990036,33.96889877,7442,0.0,0.0,Baiyun Intl,Guangzhou,China,113.298786,23.392436,3274,114489.0,0.0,Air China,China,5,2,0.0
5,2309,3274,3835,2030-01-20 00:00:00,Macomb Municipal Airport,Macomb,United States,-90.6523889,40.5200833,2309,0.0,0.0,Baiyun Intl,Guangzhou,China,113.298786,23.392436,3274,114489.0,0.0,Air China,China,5,3,0.0
5,6094,3274,4117,2030-01-20 00:00:00,Assumption Island,Assumption Island,Seychelles,46.5067,-9.7422,6094,0.0,0.0,Baiyun Intl,Guangzhou,China,113.298786,23.392436,3274,114489.0,0.0,Air China,China,5,1,0.0
3,5214,3274,10079,2030-01-20 00:00:00,Yam Island Airport,Yam Island,Australia,142.776,-9.90111,5214,0.0,0.0,Baiyun Intl,Guangzhou,China,113.298786,23.392436,3274,114489.0,0.0,Southwest Airlines,United States,3,3,0.0
5,3786,3288,3643,2030-01-20 00:00:00,Robins Afb,Macon,United States,-83.59185,32.640144,3786,0.0,0.0,Changbei Intl,Nanchang,China,115.9,28.865,3288,114489.0,0.0,Air China,China,5,3,0.0
5,3210,3288,4277,2030-01-20 00:00:00,Sultan Ismail,Johor Bahru,Malaysia,103.669619,1.641308,3210,2025849.0,0.0,Changbei Intl,Nanchang,China,115.9,28.865,3288,114489.0,0.0,Air China,China,5,2,2025849.0
4,3268,3288,3037,2030-01-20 00:00:00,Wagga Wagga,Wagga Wagga,Australia,147.466389,-35.165278,3268,134973.0,0.0,Changbei Intl,Nanchang,China,115.9,28.865,3288,114489.0,0.0,China Eastern Airlines,China,4,2,134973.0
5,3268,3288,4463,2030-01-20 00:00:00,Wagga Wagga,Wagga Wagga,Australia,147.466389,-35.165278,3268,2406811.0,0.0,Changbei Intl,Nanchang,China,115.9,28.865,3288,114489.0,0.0,Air China,China,5,1,2406811.0
5,3222,3288,4591,2030-01-20 00:00:00,Seletar,Singapore,Singapore,103.867653,1.41695,3222,703455.0,0.0,Changbei Intl,Nanchang,China,115.9,28.865,3288,114489.0,0.0,Air China,China,5,2,703455.0
5,3182,3288,3767,2030-01-20 00:00:00,Pinang Kampai,Dumai,Indonesia,101.433558,1.609194,3182,3943510.0,0.0,Changbei Intl,Nanchang,China,115.9,28.865,3288,114489.0,0.0,Air China,China,5,2,3943510.0
4,4011,3288,2655,2030-01-20 00:00:00,Ambouli International Airport,Djibouti,Djibouti,43.1594,11.5472,4011,2276381.0,0.0,Changbei Intl,Nanchang,China,115.9,28.865,3288,114489.0,0.0,China Eastern Airlines,China,4,3,2276381.0
5,4011,3288,4042,2030-01-20 00:00:00,Ambouli International Airport,Djibouti,Djibouti,43.1594,11.5472,4011,2022918.0,0.0,Changbei Intl,Nanchang,China,115.9,28.865,3288,114489.0,0.0,Air China,China,5,1,2022918.0
5,3039,3288,4358,2030-01-20 00:00:00,Wattay Intl,Vientiane,Laos,102.563256,17.988322,3039,2629177.0,0.0,Changbei Intl,Nanchang,China,115.9,28.865,3288,114489.0,0.0,Air China,China,5,3,2629177.0
5,3922,3288,4627,2030-01-20 00:00:00,Domododevo,Moscow,Russia,37.906111,55.408611,3922,8861040.0,0.0,Changbei Intl,Nanchang,China,115.9,28.865,3288,114489.0,0.0,Air China,China,5,3,8861040.0
4,3999,3288,3343,2030-01-20 00:00:00,Vancouver Coal Harbour,Vancouver,Canada,-123.115833,49.289722,3999,0.0,0.0,Changbei Intl,Nanchang,China,115.9,28.865,3288,114489.0,0.0,China Eastern Airlines,China,4,1,0.0
5,3999,3288,4721,2030-01-20 00:00:00,Vancouver Coal Harbour,Vancouver,Canada,-123.115833,49.289722,3999,0.0,0.0,Changbei Intl,Nanchang,China,115.9,28.865,3288,114489.0,0.0,Air China,China,5,1,0.0
5,3786,3276,3645,2030-01-20 00:00:00,Robins Afb,Macon,United States,-83.59185,32.640144,3786,0.0,0.0,Liangjiang,Guilin,China,110.039197,25.218106,3276,114489.0,0.0,Air China,China,5,1,0.0
3,3111,3276,9726,2030-01-20 00:00:00,Kep,Kep,Vietnam,106.261083,21.394639,3111,1230832.0,0.0,Liangjiang,Guilin,China,110.039197,25.218106,3276,114489.0,0.0,Southwest Airlines,United States,3,2,1230832.0
4,3268,3276,3093,2030-01-20 00:00:00,Wagga Wagga,Wagga Wagga,Australia,147.466389,-35.165278,3268,844479.0,0.0,Liangjiang,Guilin,China,110.039197,25.218106,3276,114489.0,0.0,China Eastern Airlines,China,4,2,844479.0
5,3268,3276,4482,2030-01-20 00:00:00,Wagga Wagga,Wagga Wagga,Australia,147.466389,-35.165278,3268,835243.0,0.0,Liangjiang,Guilin,China,110.039197,25.218106,3276,114489.0,0.0,Air China,China,5,3,835243.0
3,3222,3276,10419,2030-01-20 00:00:00,Seletar,Singapore,Singapore,103.867653,1.41695,3222,1827930.0,0.0,Liangjiang,Guilin,China,110.039197,25.218106,3276,114489.0,0.0,Southwest Airlines,United States,3,3,1827930.0
5,2220,3276,4742,2030-01-20 00:00:00,Sungshan,Taipei,Taiwan,121.5525,25.069722,2220,0.0,0.0,Liangjiang,Guilin,China,110.039197,25.218106,3276,114489.0,0.0,Air China,China,5,3,0.0
5,4011,3276,4046,2030-01-20 00:00:00,Ambouli International Airport,Djibouti,Djibouti,43.1594,11.5472,4011,1364193.0,0.0,Liangjiang,Guilin,China,110.039197,25.218106,3276,114489.0,0.0,Air China,China,5,1,1364193.0
4,3039,3276,2926,2030-01-20 00:00:00,Wattay Intl,Vientiane,Laos,102.563256,17.988322,3039,2059142.0,0.0,Liangjiang,Guilin,China,110.039197,25.218106,3276,114489.0,0.0,China Eastern Airlines,China,4,3,2059142.0
3,3146,3276,10350,2030-01-20 00:00:00,Taungoo,Taungoo,Burma,96.401239,19.031275,3146,0.0,0.0,Liangjiang,Guilin,China,110.039197,25.218106,3276,114489.0,0.0,Southwest Airlines,United States,3,1,0.0
4,3922,3276,3247,2030-01-20 00:00:00,Domododevo,Moscow,Russia,37.906111,55.408611,3922,7494359.0,0.0,Liangjiang,Guilin,China,110.039197,25.218106,3276,114489.0,0.0,China Eastern Airlines,China,4,2,7494359.0
3,3922,3276,10451,2030-01-20 00:00:00,Domododevo,Moscow,Russia,37.906111,55.408611,3922,8669201.0,0.0,Liangjiang,Guilin,China,110.039197,25.218106,3276,114489.0,0.0,Southwest Airlines,United States,3,1,8669201.0
3,2953,3276,10234,2030-01-20 00:00:00,Kampong Chhnang,Kompong Chnang,Cambodia,104.563875,12.255236,2953,607840.0,0.0,Liangjiang,Guilin,China,110.039197,25.218106,3276,114489.0,0.0,Southwest Airlines,United States,3,3,607840.0
3,3038,3276,10576,2030-01-20 00:00:00,Sam Neua,Sam Neua,Laos,104.066583,20.418358,3038,1462365.0,0.0,Liangjiang,Guilin,China,110.039197,25.218106,3276,114489.0,0.0,Southwest Airlines,United States,3,2,1462365.0
5,3786,4189,3646,2030-01-20 00:00:00,Robins Afb,Macon,United States,-83.59185,32.640144,3786,0.0,0.0,Jiuzhaigou Huanglong,Jiuzhaigou,China,103.683,32.857,4189,114489.0,0.0,Air China,China,5,2,0.0
5,2996,4189,4123,2030-01-20 00:00:00,Zia Intl,Dhaka,Bangladesh,90.397781,23.843333,2996,3230768.0,0.0,Jiuzhaigou Huanglong,Jiuzhaigou,China,103.683,32.857,4189,114489.0,0.0,Air China,China,5,3,3230768.0
4,3268,4189,3109,2030-01-20 00:00:00,Wagga Wagga,Wagga Wagga,Australia,147.466389,-35.165278,3268,2511725.0,0.0,Jiuzhaigou Huanglong,Jiuzhaigou,China,103.683,32.857,4189,114489.0,0.0,China Eastern Airlines,China,4,2,2511725.0
5,3268,4189,4488,2030-01-20 00:00:00,Wagga Wagga,Wagga Wagga,Australia,147.466389,-35.165278,3268,938282.0,0.0,Jiuzhaigou Huanglong,Jiuzhaigou,China,103.683,32.857,4189,114489.0,0.0,Air China,China,5,3,938282.0
5,3922,4189,4632,2030-01-20 00:00:00,Domododevo,Moscow,Russia,37.906111,55.408611,3922,6091660.0,0.0,Jiuzhaigou Huanglong,Jiuzhaigou,China,103.683,32.857,4189,114489.0,0.0,Air China,China,5,1,6091660.0
5,3786,3279,3647,2030-01-20 00:00:00,Robins Afb,Macon,United States,-83.59185,32.640144,3786,0.0,0.0,Xinzheng,Zhengzhou,China,113.840889,34.519672,3279,114489.0,0.0,Air China,China,5,3,0.0
4,2996,3279,2726,2030-01-20 00:00:00,Zia Intl,Dhaka,Bangladesh,90.397781,23.843333,2996,2699966.0,0.0,Xinzheng,Zhengzhou,China,113.840889,34.519672,3279,114489.0,0.0,China Eastern Airlines,China,4,3,2699966.0
5,2996,3279,4124,2030-01-20 00:00:00,Zia Intl,Dhaka,Bangladesh,90.397781,23.843333,2996,2469078.0,0.0,Xinzheng,Zhengzhou,China,113.840889,34.519672,3279,114489.0,0.0,Air China,China,5,1,2469078.0
5,3155,3279,4177,2030-01-20 00:00:00,Jalaluddin,Gorontalo,Indonesia,122.849858,0.637119,3155,4399595.0,0.0,Xinzheng,Zhengzhou,China,113.840889,34.519672,3279,114489.0,0.0,Air China,China,5,2,4399595.0
3,3155,3279,9831,2030-01-20 00:00:00,Jalaluddin,Gorontalo,Indonesia,122.849858,0.637119,3155,3129929.0,0.0,Xinzheng,Zhengzhou,China,113.840889,34.519672,3279,114489.0,0.0,Southwest Airlines,United States,3,3,3129929.0
5,2209,3279,4215,2030-01-20 00:00:00,Lyudao,Green Island,Taiwan,121.466481,22.673853,2209,0.0,0.0,Xinzheng,Zhengzhou,China,113.840889,34.519672,3279,114489.0,0.0,Air China,China,5,3,0.0
3,2209,3279,9878,2030-01-20 00:00:00,Lyudao,Green Island,Taiwan,121.466481,22.673853,2209,0.0,0.0,Xinzheng,Zhengzhou,China,113.840889,34.519672,3279,114489.0,0.0,Southwest Airlines,United States,3,3,0.0
4,3268,3279,3127,2030-01-20 00:00:00,Wagga Wagga,Wagga Wagga,Australia,147.466389,-35.165278,3268,1080483.0,0.0,Xinzheng,Zhengzhou,China,113.840889,34.519672,3279,114489.0,0.0,China Eastern Airlines,China,4,2,1080483.0
5,3268,3279,4494,2030-01-20 00:00:00,Wagga Wagga,Wagga Wagga,Australia,147.466389,-35.165278,3268,864488.0,0.0,Xinzheng,Zhengzhou,China,113.840889,34.519672,3279,114489.0,0.0,Air China,China,5,1,864488.0
3,3268,3279,10228,2030-01-20 00:00:00,Wagga Wagga,Wagga Wagga,Australia,147.466389,-35.165278,3268,109322.0,0.0,Xinzheng,Zhengzhou,China,113.840889,34.519672,3279,114489.0,0.0,Southwest Airlines,United States,3,1,109322.0
3,3222,3279,10423,2030-01-20 00:00:00,Seletar,Singapore,Singapore,103.867653,1.41695,3222,1291334.0,0.0,Xinzheng,Zhengzhou,China,113.840889,34.519672,3279,114489.0,0.0,Southwest Airlines,United States,3,2,1291334.0
5,2220,3279,4747,2030-01-20 00:00:00,Sungshan,Taipei,Taiwan,121.5525,25.069722,2220,0.0,0.0,Xinzheng,Zhengzhou,China,113.840889,34.519672,3279,114489.0,0.0,Air China,China,5,1,0.0
3,2220,3279,10527,2030-01-20 00:00:00,Sungshan,Taipei,Taiwan,121.5525,25.069722,2220,0.0,0.0,Xinzheng,Zhengzhou,China,113.840889,34.519672,3279,114489.0,0.0,Southwest Airlines,United States,3,2,0.0
4,4267,3279,2460,2030-01-20 00:00:00,Yuzhny,Ivanovo,Russia,40.940833,56.939444,4267,8509581.0,0.0,Xinzheng,Zhengzhou,China,113.840889,34.519672,3279,114489.0,0.0,China Eastern Airlines,China,4,2,8509581.0
5,4267,3279,3828,2030-01-20 00:00:00,Yuzhny,Ivanovo,Russia,40.940833,56.939444,4267,8165401.0,0.0,Xinzheng,Zhengzhou,China,113.840889,34.519672,3279,114489.0,0.0,Air China,China,5,1,8165401.0
4,3827,3279,2499,2030-01-20 00:00:00,Adi Sumarmo Wiryokusumo,Solo City,Indonesia,110.756892,-7.516089,3827,3408805.0,0.0,Xinzheng,Zhengzhou,China,113.840889,34.519672,3279,114489.0,0.0,China Eastern Airlines,China,4,1,3408805.0
5,4011,3279,4050,2030-01-20 00:00:00,Ambouli International Airport,Djibouti,Djibouti,43.1594,11.5472,4011,2348914.0,0.0,Xinzheng,Zhengzhou,China,113.840889,34.519672,3279,114489.0,0.0,Air China,China,5,3,2348914.0
4,3976,3279,2782,2030-01-20 00:00:00,Telluride,Telluride,United States,-107.90848,37.953759,3976,0.0,0.0,Xinzheng,Zhengzhou,China,113.840889,34.519672,3279,114489.0,0.0,China Eastern Airlines,China,4,3,0.0
5,3976,3279,4187,2030-01-20 00:00:00,Telluride,Telluride,United States,-107.90848,37.953759,3976,0.0,0.0,Xinzheng,Zhengzhou,China,113.840889,34.519672,3279,114489.0,0.0,Air China,China,5,3,0.0
4,3039,3279,2932,2030-01-20 00:00:00,Wattay Intl,Vientiane,Laos,102.563256,17.988322,3039,308386.0,0.0,Xinzheng,Zhengzhou,China,113.840889,34.519672,3279,114489.0,0.0,China Eastern Airlines,China,4,3,308386.0
4,4034,3279,3231,2030-01-20 00:00:00,Oudomxay,Muang Xay,Laos,101.994,20.6827,4034,643963.0,0.0,Xinzheng,Zhengzhou,China,113.840889,34.519672,3279,114489.0,0.0,China Eastern Airlines,China,4,2,643963.0
5,4034,3279,4584,2030-01-20 00:00:00,Oudomxay,Muang Xay,Laos,101.994,20.6827,4034,2017396.0,0.0,Xinzheng,Zhengzhou,China,113.840889,34.519672,3279,114489.0,0.0,Air China,China,5,3,2017396.0
5,3922,3279,4634,2030-01-20 00:00:00,Domododevo,Moscow,Russia,37.906111,55.408611,3922,6066003.0,0.0,Xinzheng,Zhengzhou,China,113.840889,34.519672,3279,114489.0,0.0,Air China,China,5,1,6066003.0
3,3922,3279,10454,2030-01-20 00:00:00,Domododevo,Moscow,Russia,37.906111,55.408611,3922,8733081.0,0.0,Xinzheng,Zhengzhou,China,113.840889,34.519672,3279,114489.0,0.0,Southwest Airlines,United States,3,3,8733081.0
4,3999,3279,3361,2030-01-20 00:00:00,Vancouver Coal Harbour,Vancouver,Canada,-123.115833,49.289722,3999,0.0,0.0,Xinzheng,Zhengzhou,China,113.840889,34.519672,3279,114489.0,0.0,China Eastern Airlines,China,4,3,0.0
5,3999,3279,4729,2030-01-20 00:00:00,Vancouver Coal Harbour,Vancouver,Canada,-123.115833,49.289722,3999,0.0,0.0,Xinzheng,Zhengzhou,China,113.840889,34.519672,3279,114489.0,0.0,Air China,China,5,3,0.0
3,5298,3279,9520,2030-01-20 00:00:00,Worcester Regional Airport,Worcester,United States,-71.8757,42.2673,5298,0.0,0.0,Xinzheng,Zhengzhou,China,113.840889,34.519672,3279,114489.0,0.0,Southwest Airlines,United States,3,1,0.0
3,3786,3285,9530,2030-01-20 00:00:00,Robins Afb,Macon,United States,-83.59185,32.640144,3786,0.0,0.0,Gasa,Jinghonggasa,China,100.759611,21.973914,3285,114489.0,0.0,Southwest Airlines,United States,3,3,0.0
3,2944,3285,9609,2030-01-20 00:00:00,Udaipur,Udaipur,India,73.8961,24.617697,2944,33832990.0,0.0,Gasa,Jinghonggasa,China,100.759611,21.973914,3285,114489.0,0.0,Southwest Airlines,United States,3,2,33832990.0
3,2137,3285,9698,2030-01-20 00:00:00,Zirku,Zirku,United Arab Emirates,53.077833,24.861542,2137,0.0,0.0,Gasa,Jinghonggasa,China,100.759611,21.973914,3285,114489.0,0.0,Southwest Airlines,United States,3,3,0.0
3,2996,3285,9783,2030-01-20 00:00:00,Zia Intl,Dhaka,Bangladesh,90.397781,23.843333,2996,2370929.0,0.0,Gasa,Jinghonggasa,China,100.759611,21.973914,3285,114489.0,0.0,Southwest Airlines,United States,3,2,2370929.0
3,3155,3285,9826,2030-01-20 00:00:00,Jalaluddin,Gorontalo,Indonesia,122.849858,0.637119,3155,5106586.0,0.0,Gasa,Jinghonggasa,China,100.759611,21.973914,3285,114489.0,0.0,Southwest Airlines,United States,3,1,5106586.0
4,3268,3285,3070,2030-01-20 00:00:00,Wagga Wagga,Wagga Wagga,Australia,147.466389,-35.165278,3268,2664827.0,0.0,Gasa,Jinghonggasa,China,100.759611,21.973914,3285,114489.0,0.0,China Eastern Airlines,China,4,2,2664827.0
5,3268,3285,4475,2030-01-20 00:00:00,Wagga Wagga,Wagga Wagga,Australia,147.466389,-35.165278,3268,1987890.0,0.0,Gasa,Jinghonggasa,China,100.759611,21.973914,3285,114489.0,0.0,Air China,China,5,3,1987890.0
3,3268,3285,10209,2030-01-20 00:00:00,Wagga Wagga,Wagga Wagga,Australia,147.466389,-35.165278,3268,2986529.0,0.0,Gasa,Jinghonggasa,China,100.759611,21.973914,3285,114489.0,0.0,Southwest Airlines,United States,3,1,2986529.0
3,2220,3285,10520,2030-01-20 00:00:00,Sungshan,Taipei,Taiwan,121.5525,25.069722,2220,0.0,0.0,Gasa,Jinghonggasa,China,100.759611,21.973914,3285,114489.0,0.0,Southwest Airlines,United States,3,3,0.0
3,3827,3285,9611,2030-01-20 00:00:00,Adi Sumarmo Wiryokusumo,Solo City,Indonesia,110.756892,-7.516089,3827,5829721.0,0.0,Gasa,Jinghonggasa,China,100.759611,21.973914,3285,114489.0,0.0,Southwest Airlines,United States,3,1,5829721.0
5,4011,3285,4044,2030-01-20 00:00:00,Ambouli International Airport,Djibouti,Djibouti,43.1594,11.5472,4011,2912752.0,0.0,Gasa,Jinghonggasa,China,100.759611,21.973914,3285,114489.0,0.0,Air China,China,5,1,2912752.0
3,4011,3285,9724,2030-01-20 00:00:00,Ambouli International Airport,Djibouti,Djibouti,43.1594,11.5472,4011,1997135.0,0.0,Gasa,Jinghonggasa,China,100.759611,21.973914,3285,114489.0,0.0,Southwest Airlines,United States,3,3,1997135.0
3,3095,3285,9798,2030-01-20 00:00:00,Cha Ian,Nakhon Si Thammarat,Thailand,99.955625,8.471147,3095,2284778.0,0.0,Gasa,Jinghonggasa,China,100.759611,21.973914,3285,114489.0,0.0,Southwest Airlines,United States,3,3,2284778.0
3,3976,3285,9836,2030-01-20 00:00:00,Telluride,Telluride,United States,-107.90848,37.953759,3976,0.0,0.0,Gasa,Jinghonggasa,China,100.759611,21.973914,3285,114489.0,0.0,Southwest Airlines,United States,3,2,0.0
3,3043,3285,9980,2030-01-20 00:00:00,Janakpur,Janakpur,Nepal,85.922394,26.708806,3043,2969643.0,0.0,Gasa,Jinghonggasa,China,100.759611,21.973914,3285,114489.0,0.0,Southwest Airlines,United States,3,3,2969643.0
5,3925,3285,4340,2030-01-20 00:00:00,East 34th Street Heliport,New York,United States,-73.971944,40.7425,3925,0.0,0.0,Gasa,Jinghonggasa,China,100.759611,21.973914,3285,114489.0,0.0,Air China,China,5,3,0.0
3,3925,3285,10015,2030-01-20 00:00:00,East 34th Street Heliport,New York,United States,-73.971944,40.7425,3925,0.0,0.0,Gasa,Jinghonggasa,China,100.759611,21.973914,3285,114489.0,0.0,Southwest Airlines,United States,3,1,0.0
3,3988,3285,10027,2030-01-20 00:00:00,Levuka Airfield,Levuka,Fiji,178.83333,-17.68333,3988,590064.0,0.0,Gasa,Jinghonggasa,China,100.759611,21.973914,3285,114489.0,0.0,Southwest Airlines,United States,3,2,590064.0
3,3039,3285,10061,2030-01-20 00:00:00,Wattay Intl,Vientiane,Laos,102.563256,17.988322,3039,1343248.0,0.0,Gasa,Jinghonggasa,China,100.759611,21.973914,3285,114489.0,0.0,Southwest Airlines,United States,3,1,1343248.0
3,2954,3285,10347,2030-01-20 00:00:00,Phnom Penh Intl,Phnom-penh,Cambodia,104.844139,11.546556,2954,2444248.0,0.0,Gasa,Jinghonggasa,China,100.759611,21.973914,3285,114489.0,0.0,Southwest Airlines,United States,3,3,2444248.0
4,3146,3285,3192,2030-01-20 00:00:00,Taungoo,Taungoo,Burma,96.401239,19.031275,3146,0.0,0.0,Gasa,Jinghonggasa,China,100.759611,21.973914,3285,114489.0,0.0,China Eastern Airlines,China,4,2,0.0
3,3146,3285,10349,2030-01-20 00:00:00,Taungoo,Taungoo,Burma,96.401239,19.031275,3146,0.0,0.0,Gasa,Jinghonggasa,China,100.759611,21.973914,3285,114489.0,0.0,Southwest Airlines,United States,3,2,0.0
5,3922,3285,4629,2030-01-20 00:00:00,Domododevo,Moscow,Russia,37.906111,55.408611,3922,7232487.0,0.0,Gasa,Jinghonggasa,China,100.759611,21.973914,3285,114489.0,0.0,Air China,China,5,1,7232487.0
3,3922,3285,10448,2030-01-20 00:00:00,Domododevo,Moscow,Russia,37.906111,55.408611,3922,6592690.0,0.0,Gasa,Jinghonggasa,China,100.759611,21.973914,3285,114489.0,0.0,Southwest Airlines,United States,3,1,6592690.0
4,3999,3285,3351,2030-01-20 00:00:00,Vancouver Coal Harbour,Vancouver,Canada,-123.115833,49.289722,3999,0.0,0.0,Gasa,Jinghonggasa,China,100.759611,21.973914,3285,114489.0,0.0,China Eastern Airlines,China,4,3,0.0
3,2995,3285,9663,2030-01-20 00:00:00,Tejgaon,Dhaka,Bangladesh,90.382689,23.778783,2995,3320974.0,0.0,Gasa,Jinghonggasa,China,100.759611,21.973914,3285,114489.0,0.0,Southwest Airlines,United States,3,2,3320974.0
3,3108,3285,9664,2030-01-20 00:00:00,Mara Lodges,Mara Lodges,Kenya,35.099931,-1.183581,3108,806115.0,0.0,Gasa,Jinghonggasa,China,100.759611,21.973914,3285,114489.0,0.0,Southwest Airlines,United States,3,2,806115.0
5,5248,3285,3954,2030-01-20 00:00:00,Muren Airport,Muren,Mongolia,100.099,49.6633,5248,2099379.0,0.0,Gasa,Jinghonggasa,China,100.759611,21.973914,3285,114489.0,0.0,Air China,China,5,1,2099379.0
3,5248,3285,9673,2030-01-20 00:00:00,Muren Airport,Muren,Mongolia,100.099,49.6633,5248,2632986.0,0.0,Gasa,Jinghonggasa,China,100.759611,21.973914,3285,114489.0,0.0,Southwest Airlines,United States,3,3,2632986.0
5,3946,3285,3985,2030-01-20 00:00:00,EuroAirport Basel-Mulhouse-Freiburg,Basel,Switzerland,7.529167,47.59,3946,8417331.0,0.0,Gasa,Jinghonggasa,China,100.759611,21.973914,3285,114489.0,0.0,Air China,China,5,3,8417331.0
3,3946,3285,9689,2030-01-20 00:00:00,EuroAirport Basel-Mulhouse-Freiburg,Basel,Switzerland,7.529167,47.59,3946,7679404.0,0.0,Gasa,Jinghonggasa,China,100.759611,21.973914,3285,114489.0,0.0,Southwest Airlines,United States,3,3,7679404.0
3,7349,3285,9857,2030-01-20 00:00:00,Magan,Yakutsk,Russia,129.3334,62.0626,7349,8590396.0,0.0,Gasa,Jinghonggasa,China,100.759611,21.973914,3285,114489.0,0.0,Southwest Airlines,United States,3,2,8590396.0
3,5385,3285,9862,2030-01-20 00:00:00,HLP HQ GT,Paetz,Germany,13.6667,52.2361,5385,6486996.0,1.0,Gasa,Jinghonggasa,China,100.759611,21.973914,3285,114489.0,0.0,Southwest Airlines,United States,3,1,6486996.0
5,6102,3285,4342,2030-01-20 00:00:00,Lively Settlement Airstrip,Lively Island,Falkland Islands,-58.47,-52.03,6102,0.0,0.0,Gasa,Jinghonggasa,China,100.759611,21.973914,3285,114489.0,0.0,Air China,China,5,3,0.0
3,6102,3285,10022,2030-01-20 00:00:00,Lively Settlement Airstrip,Lively Island,Falkland Islands,-58.47,-52.03,6102,0.0,0.0,Gasa,Jinghonggasa,China,100.759611,21.973914,3285,114489.0,0.0,Southwest Airlines,United States,3,1,0.0
3,4038,3285,10030,2030-01-20 00:00:00,Petersburg James A. Johnson,Petersburg,United States,-132.945278,56.801667,4038,0.0,0.0,Gasa,Jinghonggasa,China,100.759611,21.973914,3285,114489.0,0.0,Southwest Airlines,United States,3,3,0.0
3,2962,3285,9559,2030-01-20 00:00:00,Bhubaneshwar,Bhubaneswar,India,85.817781,20.244364,2962,33830577.0,0.0,Gasa,Jinghonggasa,China,100.759611,21.973914,3285,114489.0,0.0,Southwest Airlines,United States,3,3,33830577.0
3,3828,3285,9563,2030-01-20 00:00:00,Chiang Mai Intl,Chiang Mai,Thailand,98.962644,18.766847,3828,2503153.0,0.0,Gasa,Jinghonggasa,China,100.759611,21.973914,3285,114489.0,0.0,Southwest Airlines,United States,3,2,2503153.0
3,3130,3285,10056,2030-01-20 00:00:00,Lanywa,Lanywa,Burma,94.822617,20.940361,3130,0.0,0.0,Gasa,Jinghonggasa,China,100.759611,21.973914,3285,114489.0,0.0,Southwest Airlines,United States,3,3,0.0
3,6703,3285,10189,2030-01-20 00:00:00,TCO,Tengiz,Kazakhstan,53.4275,46.303056,6703,2320435.0,0.0,Gasa,Jinghonggasa,China,100.759611,21.973914,3285,114489.0,0.0,Southwest Airlines,United States,3,2,2320435.0
3,6436,3285,10502,2030-01-20 00:00:00,Chkalovsky Airport,Shchyolkovo,Russia,38.061667,55.878333,6436,6559762.0,0.0,Gasa,Jinghonggasa,China,100.759611,21.973914,3285,114489.0,0.0,Southwest Airlines,United States,3,1,6559762.0
3,3038,3285,10575,2030-01-20 00:00:00,Sam Neua,Sam Neua,Laos,104.066583,20.418358,3038,1982529.0,0.0,Gasa,Jinghonggasa,China,100.759611,21.973914,3285,114489.0,0.0,Southwest Airlines,United States,3,3,1982529.0
3,3786,3290,9531,2030-01-20 00:00:00,Robins Afb,Macon,United States,-83.59185,32.640144,3786,0.0,0.0,Xiaoshan,Hangzhou,China,120.434453,30.229503,3290,114489.0,0.0,Southwest Airlines,United States,3,2,0.0
3,2996,3290,9786,2030-01-20 00:00:00,Zia Intl,Dhaka,Bangladesh,90.397781,23.843333,2996,3497129.0,0.0,Xiaoshan,Hangzhou,China,120.434453,30.229503,3290,114489.0,0.0,Southwest Airlines,United States,3,1,3497129.0
4,3268,3290,3090,2030-01-20 00:00:00,Wagga Wagga,Wagga Wagga,Australia,147.466389,-35.165278,3268,1104857.0,0.0,Xiaoshan,Hangzhou,China,120.434453,30.229503,3290,114489.0,0.0,China Eastern Airlines,China,4,3,1104857.0
5,3268,3290,4481,2030-01-20 00:00:00,Wagga Wagga,Wagga Wagga,Australia,147.466389,-35.165278,3268,878243.0,0.0,Xiaoshan,Hangzhou,China,120.434453,30.229503,3290,114489.0,0.0,Air China,China,5,3,878243.0
3,3268,3290,10216,2030-01-20 00:00:00,Wagga Wagga,Wagga Wagga,Australia,147.466389,-35.165278,3268,2264684.0,0.0,Xiaoshan,Hangzhou,China,120.434453,30.229503,3290,114489.0,0.0,Southwest Airlines,United States,3,1,2264684.0
3,2220,3290,10521,2030-01-20 00:00:00,Sungshan,Taipei,Taiwan,121.5525,25.069722,2220,0.0,0.0,Xiaoshan,Hangzhou,China,120.434453,30.229503,3290,114489.0,0.0,Southwest Airlines,United States,3,2,0.0
5,4267,3290,3819,2030-01-20 00:00:00,Yuzhny,Ivanovo,Russia,40.940833,56.939444,4267,7287240.0,0.0,Xiaoshan,Hangzhou,China,120.434453,30.229503,3290,114489.0,0.0,Air China,China,5,3,7287240.0
4,3039,3290,2924,2030-01-20 00:00:00,Wattay Intl,Vientiane,Laos,102.563256,17.988322,3039,1795220.0,0.0,Xiaoshan,Hangzhou,China,120.434453,30.229503,3290,114489.0,0.0,China Eastern Airlines,China,4,2,1795220.0
3,2309,3290,9589,2030-01-20 00:00:00,Macomb Municipal Airport,Macomb,United States,-90.6523889,40.5200833,2309,0.0,0.0,Xiaoshan,Hangzhou,China,120.434453,30.229503,3290,114489.0,0.0,Southwest Airlines,United States,3,2,0.0
3,5214,3290,10097,2030-01-20 00:00:00,Yam Island Airport,Yam Island,Australia,142.776,-9.90111,5214,0.0,0.0,Xiaoshan,Hangzhou,China,120.434453,30.229503,3290,114489.0,0.0,Southwest Airlines,United States,3,2,0.0
4,337,3291,2635,2030-01-20 00:00:00,Erfurt,Erfurt,Germany,10.958106,50.979811,337,4652507.0,1.0,Lishe,Ninbo,China,121.461906,29.826683,3291,114489.0,0.0,China Eastern Airlines,China,4,3,4652507.0
3,2996,3291,9787,2030-01-20 00:00:00,Zia Intl,Dhaka,Bangladesh,90.397781,23.843333,2996,1231951.0,0.0,Lishe,Ninbo,China,121.461906,29.826683,3291,114489.0,0.0,Southwest Airlines,United States,3,3,1231951.0
3,3155,3291,9828,2030-01-20 00:00:00,Jalaluddin,Gorontalo,Indonesia,122.849858,0.637119,3155,3402591.0,0.0,Lishe,Ninbo,China,121.461906,29.826683,3291,114489.0,0.0,Southwest Airlines,United States,3,1,3402591.0
3,2209,3291,9877,2030-01-20 00:00:00,Lyudao,Green Island,Taiwan,121.466481,22.673853,2209,0.0,0.0,Lishe,Ninbo,China,121.461906,29.826683,3291,114489.0,0.0,Southwest Airlines,United States,3,2,0.0
3,3884,3291,9899,2030-01-20 00:00:00,Ellinikon International Airport,Athens,Greece,23.4346,37.5354,3884,0.0,0.0,Lishe,Ninbo,China,121.461906,29.826683,3291,114489.0,0.0,Southwest Airlines,United States,3,3,0.0
3,2223,3291,10186,2030-01-20 00:00:00,Hualien,Hualien,Taiwan,121.616906,24.023725,2223,0.0,0.0,Lishe,Ninbo,China,121.461906,29.826683,3291,114489.0,0.0,Southwest Airlines,United States,3,1,0.0
4,3268,3291,3092,2030-01-20 00:00:00,Wagga Wagga,Wagga Wagga,Australia,147.466389,-35.165278,3268,2012882.0,0.0,Lishe,Ninbo,China,121.461906,29.826683,3291,114489.0,0.0,China Eastern Airlines,China,4,3,2012882.0
3,3268,3291,10217,2030-01-20 00:00:00,Wagga Wagga,Wagga Wagga,Australia,147.466389,-35.165278,3268,498853.0,0.0,Lishe,Ninbo,China,121.461906,29.826683,3291,114489.0,0.0,Southwest Airlines,United States,3,3,498853.0
3,2311,3291,10235,2030-01-20 00:00:00,Jinhae,Chinhae,South Korea,128.695792,35.141175,2311,0.0,0.0,Lishe,Ninbo,China,121.461906,29.826683,3291,114489.0,0.0,Southwest Airlines,United States,3,3,0.0
3,3265,3291,10443,2030-01-20 00:00:00,Richmond,Richmond,Australia,150.780833,-33.600556,3265,1967551.0,0.0,Lishe,Ninbo,China,121.461906,29.826683,3291,114489.0,0.0,Southwest Airlines,United States,3,3,1967551.0
3,2220,3291,10522,2030-01-20 00:00:00,Sungshan,Taipei,Taiwan,121.5525,25.069722,2220,0.0,0.0,Lishe,Ninbo,China,121.461906,29.826683,3291,114489.0,0.0,Southwest Airlines,United States,3,3,0.0
4,4267,3291,2455,2030-01-20 00:00:00,Yuzhny,Ivanovo,Russia,40.940833,56.939444,4267,8644235.0,0.0,Lishe,Ninbo,China,121.461906,29.826683,3291,114489.0,0.0,China Eastern Airlines,China,4,2,8644235.0
5,4267,3291,3820,2030-01-20 00:00:00,Yuzhny,Ivanovo,Russia,40.940833,56.939444,4267,8904815.0,0.0,Lishe,Ninbo,China,121.461906,29.826683,3291,114489.0,0.0,Air China,China,5,1,8904815.0
4,4011,3291,2657,2030-01-20 00:00:00,Ambouli International Airport,Djibouti,Djibouti,43.1594,11.5472,4011,2934741.0,0.0,Lishe,Ninbo,China,121.461906,29.826683,3291,114489.0,0.0,China Eastern Airlines,China,4,3,2934741.0
5,4011,3291,4045,2030-01-20 00:00:00,Ambouli International Airport,Djibouti,Djibouti,43.1594,11.5472,4011,271527.0,0.0,Lishe,Ninbo,China,121.461906,29.826683,3291,114489.0,0.0,Air China,China,5,3,271527.0
5,3976,3291,4183,2030-01-20 00:00:00,Telluride,Telluride,United States,-107.90848,37.953759,3976,0.0,0.0,Lishe,Ninbo,China,121.461906,29.826683,3291,114489.0,0.0,Air China,China,5,1,0.0
3,3976,3291,9837,2030-01-20 00:00:00,Telluride,Telluride,United States,-107.90848,37.953759,3976,0.0,0.0,Lishe,Ninbo,China,121.461906,29.826683,3291,114489.0,0.0,Southwest Airlines,United States,3,1,0.0
4,3039,3291,2925,2030-01-20 00:00:00,Wattay Intl,Vientiane,Laos,102.563256,17.988322,3039,275391.0,0.0,Lishe,Ninbo,China,121.461906,29.826683,3291,114489.0,0.0,China Eastern Airlines,China,4,2,275391.0
4,4034,3291,3222,2030-01-20 00:00:00,Oudomxay,Muang Xay,Laos,101.994,20.6827,4034,2609315.0,0.0,Lishe,Ninbo,China,121.461906,29.826683,3291,114489.0,0.0,China Eastern Airlines,China,4,2,2609315.0
5,4034,3291,4574,2030-01-20 00:00:00,Oudomxay,Muang Xay,Laos,101.994,20.6827,4034,854155.0,0.0,Lishe,Ninbo,China,121.461906,29.826683,3291,114489.0,0.0,Air China,China,5,1,854155.0
3,3922,3291,10450,2030-01-20 00:00:00,Domododevo,Moscow,Russia,37.906111,55.408611,3922,8616789.0,0.0,Lishe,Ninbo,China,121.461906,29.826683,3291,114489.0,0.0,Southwest Airlines,United States,3,3,8616789.0
4,2248,3306,2640,2030-01-20 00:00:00,Fukue,Fukue,Japan,128.832808,32.666269,2248,1259320.0,0.0,Hailang,Mudanjiang,China,129.568972,44.524072,3306,114489.0,0.0,China Eastern Airlines,China,4,3,1259320.0
4,2996,3306,2722,2030-01-20 00:00:00,Zia Intl,Dhaka,Bangladesh,90.397781,23.843333,2996,2479338.0,0.0,Hailang,Mudanjiang,China,129.568972,44.524072,3306,114489.0,0.0,China Eastern Airlines,China,4,1,2479338.0
4,3155,3306,2764,2030-01-20 00:00:00,Jalaluddin,Gorontalo,Indonesia,122.849858,0.637119,3155,4553572.0,0.0,Hailang,Mudanjiang,China,129.568972,44.524072,3306,114489.0,0.0,China Eastern Airlines,China,4,3,4553572.0
5,3155,3306,4171,2030-01-20 00:00:00,Jalaluddin,Gorontalo,Indonesia,122.849858,0.637119,3155,4059807.0,0.0,Hailang,Mudanjiang,China,129.568972,44.524072,3306,114489.0,0.0,Air China,China,5,2,4059807.0
4,3884,3306,2825,2030-01-20 00:00:00,Ellinikon International Airport,Athens,Greece,23.4346,37.5354,3884,0.0,0.0,Hailang,Mudanjiang,China,129.568972,44.524072,3306,114489.0,0.0,China Eastern Airlines,China,4,2,0.0
5,3884,3306,4232,2030-01-20 00:00:00,Ellinikon International Airport,Athens,Greece,23.4346,37.5354,3884,0.0,0.0,Hailang,Mudanjiang,China,129.568972,44.524072,3306,114489.0,0.0,Air China,China,5,1,0.0
5,3837,3306,4393,2030-01-20 00:00:00,Eleftherios Venizelos Intl,Athens,Greece,23.944467,37.936358,3837,3154552.0,0.0,Hailang,Mudanjiang,China,129.568972,44.524072,3306,114489.0,0.0,Air China,China,5,2,3154552.0
4,2223,3306,2988,2030-01-20 00:00:00,Hualien,Hualien,Taiwan,121.616906,24.023725,2223,0.0,0.0,Hailang,Mudanjiang,China,129.568972,44.524072,3306,114489.0,0.0,China Eastern Airlines,China,4,2,0.0
5,2223,3306,4444,2030-01-20 00:00:00,Hualien,Hualien,Taiwan,121.616906,24.023725,2223,0.0,0.0,Hailang,Mudanjiang,China,129.568972,44.524072,3306,114489.0,0.0,Air China,China,5,1,0.0
3,2223,3306,10185,2030-01-20 00:00:00,Hualien,Hualien,Taiwan,121.616906,24.023725,2223,0.0,0.0,Hailang,Mudanjiang,China,129.568972,44.524072,3306,114489.0,0.0,Southwest Airlines,United States,3,3,0.0
4,3268,3306,3029,2030-01-20 00:00:00,Wagga Wagga,Wagga Wagga,Australia,147.466389,-35.165278,3268,2446694.0,0.0,Hailang,Mudanjiang,China,129.568972,44.524072,3306,114489.0,0.0,China Eastern Airlines,China,4,3,2446694.0
5,3268,3306,4460,2030-01-20 00:00:00,Wagga Wagga,Wagga Wagga,Australia,147.466389,-35.165278,3268,2694627.0,0.0,Hailang,Mudanjiang,China,129.568972,44.524072,3306,114489.0,0.0,Air China,China,5,3,2694627.0
3,3268,3306,10197,2030-01-20 00:00:00,Wagga Wagga,Wagga Wagga,Australia,147.466389,-35.165278,3268,1278215.0,0.0,Hailang,Mudanjiang,China,129.568972,44.524072,3306,114489.0,0.0,Southwest Airlines,United States,3,1,1278215.0
5,2220,3306,4737,2030-01-20 00:00:00,Sungshan,Taipei,Taiwan,121.5525,25.069722,2220,0.0,0.0,Hailang,Mudanjiang,China,129.568972,44.524072,3306,114489.0,0.0,Air China,China,5,3,0.0
3,5460,3306,9579,2030-01-20 00:00:00,Samburu South Airport,Samburu South,Kenya,37.5342,0.530583,5460,1177030.0,0.0,Hailang,Mudanjiang,China,129.568972,44.524072,3306,114489.0,0.0,Southwest Airlines,United States,3,3,1177030.0
4,2269,3306,2719,2030-01-20 00:00:00,Shizuhama,Yaizu,Japan,138.298056,34.812778,2269,2946516.0,0.0,Hailang,Mudanjiang,China,129.568972,44.524072,3306,114489.0,0.0,China Eastern Airlines,China,4,3,2946516.0
